[
    {
        "name": "Aréna de Matagami",
        "address": "30 rue Cavellier",
        "city": "Matagami",
        "coordinates": {
            "type": "Point",
            "coordinates": [
                -77.6254195,
                49.7574304
            ]
        },
        "region": 10
    },
    {
        "name": "Aréna de Ste-Germaine-Boulé",
        "address": "240 rue Roy",
        "city": "Sainte-Germaine-Boulé",
        "coordinates": {
            "type": "Point",
            "coordinates": [
                -79.1153585,
                48.6159918
            ]
        },
        "region": 8
    },
    {
        "name": "Aréna Jean-Guy-Perron",
        "address": "500 Place Quévillon",
        "city": "Lebel-sur-Quévillon",
        "coordinates": {
            "type": "Point",
            "coordinates": [
                -76.9765288,
                49.052402
            ]
        },
        "region": 10
    },
    {
        "name": "Aréna lamgold, Jacques-Laperrière, Évain et Cloutier",
        "address": "218 avenue Murdoch",
        "city": "Rouyn-Noranda",
        "coordinates": {
            "type": "Point",
            "coordinates": [
                -79.0180934,
                48.2467356
            ]
        },
        "region": 8
    },
    {
        "name": "Aréna Nicol Auto de La Sarre",
        "address": "550 rue Principale",
        "city": "La Sarre",
        "coordinates": {
            "type": "Point",
            "coordinates": [
                -79.2053455,
                48.7958953
            ]
        },
        "region": 8
    },
    {
        "name": "Aréna Rogatien-Vachon",
        "address": "71 6e Avenue Ouest",
        "city": "Palmarolle",
        "coordinates": {
            "type": "Point",
            "coordinates": [
                -79.2019739,
                48.6667709
            ]
        },
        "region": 8
    },
    {
        "name": "Centre air Creebec",
        "address": "810 6e Avenue",
        "city": "Val-d'Or",
        "coordinates": {
            "type": "Point",
            "coordinates": [
                -77.7856668,
                48.1049135
            ]
        },
        "region": 8
    },
    {
        "name": "Centre Joachim-Tremblay",
        "address": "34 6e Avenue Ouest",
        "city": "Macamic",
        "coordinates": {
            "type": "Point",
            "coordinates": [
                -79.0050332,
                48.7548317
            ]
        },
        "region": 8
    },
    {
        "name": "Centre Michel-Brière",
        "address": "901 rue Royale",
        "city": "Malartic",
        "coordinates": {
            "type": "Point",
            "coordinates": [
                -78.1270747,
                48.1363793
            ]
        },
        "region": 8
    },
    {
        "name": "Centre Récréatif de Dupuy",
        "address": "6 7e Avenue Est",
        "city": "Dupuy",
        "coordinates": {
            "type": "Point",
            "coordinates": [
                -79.35692591735915,
                48.8310166
            ]
        },
        "region": 8
    },
    {
        "name": "Centre récréatif de Taschereau",
        "address": "50 rue Morin",
        "city": "Taschereau",
        "coordinates": {
            "type": "Point",
            "coordinates": [
                -78.6845518,
                48.6624357
            ]
        },
        "region": 8
    },
    {
        "name": "Centre sportif André-Dubé",
        "address": "551 10e Avenue",
        "city": "Senneterre",
        "coordinates": {
            "type": "Point",
            "coordinates": [
                -77.2404754,
                48.3903919
            ]
        },
        "region": 8
    },
    {
        "name": "Colisée de Guigues",
        "address": "21 rue Principale Nord",
        "city": "Saint-Bruno-de-Guigues",
        "coordinates": {
            "type": "Point",
            "coordinates": [
                -79.437875375,
                47.463878375
            ]
        },
        "region": 8
    },
    {
        "name": "Complexe sportif d'Amos",
        "address": "182 10e Avenue Est",
        "city": "Amos",
        "coordinates": {
            "type": "Point",
            "coordinates": [
                -78.1117138,
                48.569731
            ]
        },
        "region": 8
    },
    {
        "name": "Le Centre",
        "address": "20 rue Humphrey",
        "city": "Témiscaming",
        "coordinates": {
            "type": "Point",
            "coordinates": [
                -79.0933389,
                46.7217705
            ]
        },
        "region": 8
    },
    {
        "name": "Polydium",
        "address": "85 rue Côté",
        "city": "Notre-Dame-du-Nord",
        "coordinates": {
            "type": "Point",
            "coordinates": [
                -79.4891462,
                47.5902427
            ]
        },
        "region": 8
    },
    {
        "name": "Ville de Ville-Marie",
        "address": "21 rue St-Gabriel Sud",
        "city": "Ville-Marie",
        "coordinates": {
            "type": "Point",
            "coordinates": [
                -79.4374412,
                47.3285184
            ]
        },
        "region": 8
    },
    {
        "name": "Aréna Connie-Dion",
        "address": "100 rue Gaspé",
        "city": "Val-des-Sources",
        "coordinates": {
            "type": "Point",
            "coordinates": [
                -71.9424752,
                45.780996
            ]
        },
        "region": 5
    },
    {
        "name": "Aréna de Bedford",
        "address": "15 Marziali",
        "city": "Bedford",
        "coordinates": {
            "type": "Point",
            "coordinates": [
                -72.9960711,
                45.1183827
            ]
        },
        "region": 5
    },
    {
        "name": "Aréna de Magog",
        "address": "7 rue Principale",
        "city": "Magog",
        "coordinates": {
            "type": "Point",
            "coordinates": [
                -72.1468359,
                45.2649413
            ]
        },
        "region": 5
    },
    {
        "name": "Aréna de Weedon",
        "address": "520 2e Avenue",
        "city": "Weedon",
        "coordinates": {
            "type": "Point",
            "coordinates": [
                -71.4607058,
                45.707174
            ]
        },
        "region": 5
    },
    {
        "name": "Aréna Guy-Nadeau",
        "address": "1155 rue St-Michel",
        "city": "Saint-Césaire",
        "coordinates": {
            "type": "Point",
            "coordinates": [
                -73.01265184783863,
                45.4127422
            ]
        },
        "region": 16
    },
    {
        "name": "Aréna Jacques-Chagnon",
        "address": "350 avenue du Parc",
        "city": "Waterloo",
        "coordinates": {
            "type": "Point",
            "coordinates": [
                -72.5249345,
                45.3417411
            ]
        },
        "region": 5
    },
    {
        "name": "Aréna Jean-Charles-Perreault",
        "address": "2 boul. Ouellet",
        "city": "Warwick",
        "coordinates": {
            "type": "Point",
            "coordinates": [
                -71.9999772,
                45.945911
            ]
        },
        "region": 17
    },
    {
        "name": "Aréna Léo-Paul-Boutin",
        "address": "1051 rue St-Jean",
        "city": "Plessisville",
        "coordinates": {
            "type": "Point",
            "coordinates": [
                -71.7880539,
                46.217175
            ]
        },
        "region": 17
    },
    {
        "name": "Aréna Mont Ste-Anne",
        "address": "2100 Chemin Ste-Catherine",
        "city": "Sherbrooke",
        "coordinates": {
            "type": "Point",
            "coordinates": [
                -71.9325961,
                45.3729633
            ]
        },
        "region": 5
    },
    {
        "name": "Aréna Pat Burns (collège Stanstead)",
        "address": "27 Pat Burns",
        "city": "Stanstead",
        "coordinates": {
            "type": "Point",
            "coordinates": [
                -72.09139006619662,
                45.01324065
            ]
        },
        "region": 5
    },
    {
        "name": "Aréna Valcourt",
        "address": "1111 boul. des Cyprès",
        "city": "Valcourt",
        "coordinates": {
            "type": "Point",
            "coordinates": [
                -72.3054307,
                45.4953293
            ]
        },
        "region": 5
    },
    {
        "name": "Centre J.A.-Lemay",
        "address": "11 rue St-Georges",
        "city": "Windsor",
        "coordinates": {
            "type": "Point",
            "coordinates": [
                -72.00566181902735,
                45.5688776634602
            ]
        },
        "region": 5
    },
    {
        "name": "Centre Marcel-Dionne et Olympia Yvan-Cournoyer",
        "address": "1145 boul. Jean-de-Brébeuf",
        "city": "Drummondville",
        "type": "olympique",
        "coordinates": {
            "type": "Point",
            "coordinates": [
                -72.47489409443179,
                45.85870665
            ]
        },
        "region": 17
    },
    {
        "name": "Centre récréatif Gérard Couillard",
        "address": "435 rue Vincent",
        "city": "Coaticook",
        "coordinates": {
            "type": "Point",
            "coordinates": [
                -71.7966796,
                45.1342968
            ]
        },
        "region": 5
    },
    {
        "name": "Centre Récréatif Rock Forest",
        "address": "5265 rue de Gaspé",
        "city": "Sherbrooke",
        "coordinates": {
            "type": "Point",
            "coordinates": [
                -71.9886546,
                45.3687892
            ]
        },
        "region": 5
    },
    {
        "name": "Centre sportif",
        "address": "1 9e Avenue",
        "city": "Daveluyville",
        "coordinates": {
            "type": "Point",
            "coordinates": [
                -72.1358241,
                46.2011744
            ]
        },
        "region": 17
    },
    {
        "name": "Centre sportif d'Acton Vale",
        "address": "1505 3e Avenue",
        "city": "Acton Vale",
        "coordinates": {
            "type": "Point",
            "coordinates": [
                -72.573432,
                45.6558934
            ]
        },
        "region": 16
    },
    {
        "name": "Centre sportif Mégantic",
        "address": "5400 rue Papineau",
        "city": "Lac-Mégantic",
        "coordinates": {
            "type": "Point",
            "coordinates": [
                -70.87887990460902,
                45.57683815
            ]
        },
        "region": 5
    },
    {
        "name": "Centre sportif P.E. Lefebvre",
        "address": "800 rue Gouin",
        "city": "Richmond",
        "coordinates": {
            "type": "Point",
            "coordinates": [
                -72.1471605,
                45.6667425
            ]
        },
        "region": 5
    },
    {
        "name": "Centre sportif Paul-de-la-Sablonnière",
        "address": "55 rue Baillargeon",
        "city": "Princeville",
        "coordinates": {
            "type": "Point",
            "coordinates": [
                -71.8725143,
                46.1771722
            ]
        },
        "region": 17
    },
    {
        "name": "Complexe sportif Thibault GM",
        "address": "2959 de l’Université",
        "city": "Sherbrooke",
        "coordinates": {
            "type": "Point",
            "coordinates": [
                -71.94607888705316,
                45.38001935
            ]
        },
        "region": 5
    },
    {
        "name": "Granby Multi-Sports",
        "address": "601 Léon-Harmel",
        "city": "Granby",
        "coordinates": {
            "type": "Point",
            "coordinates": [
                -72.7462929,
                45.4054014
            ]
        },
        "region": 5
    },
    {
        "name": "Membre à vie",
        "address": "1455 Bélair",
        "city": "Acton Vale",
        "coordinates": {
            "type": "Point",
            "coordinates": [
                -72.5646076,
                45.65582655142857
            ]
        },
        "region": 16
    },
    {
        "name": "Service des Loisirs de Saint-Hyacinthe",
        "address": "850 rue Turcot",
        "city": "Saint-Hyacinthe",
        "coordinates": {
            "type": "Point",
            "coordinates": [
                -72.95402976168032,
                45.634800150000004
            ]
        },
        "region": 16
    },
    {
        "name": "Service des loisirs et de la vie communautaire -Pavillon des sports Roland Desourdy",
        "address": "220 Place Municipale",
        "city": "Cowansville",
        "coordinates": {
            "type": "Point",
            "coordinates": [
                -72.7402879,
                45.2048941
            ]
        },
        "region": 5
    },
    {
        "name": "Service des loisirs, culture et tourisme",
        "address": "477 rue de l'Hôtel de Ville",
        "city": "Farnham",
        "coordinates": {
            "type": "Point",
            "coordinates": [
                -72.9773397,
                45.2834126
            ]
        },
        "region": 5
    },
    {
        "name": "Société de l'aréna St-Cyrille Inc.",
        "address": "4675 rue Principale",
        "city": "Saint-Cyrille-de-Wendover",
        "coordinates": {
            "type": "Point",
            "coordinates": [
                -72.4186191,
                45.9380174
            ]
        },
        "region": 17
    },
    {
        "name": "Ville de Bromont (SLCVC)",
        "address": "88 boul. de Bromont",
        "city": "Bromont",
        "coordinates": {
            "type": "Point",
            "coordinates": [
                -72.6424641,
                45.3364677
            ]
        },
        "region": 5
    },
    {
        "name": "Ville de Sherbrooke (SSCVC)",
        "address": "555 Grandes-Fourches Sud",
        "city": "Sherbrooke",
        "coordinates": {
            "type": "Point",
            "coordinates": [
                -71.8843891,
                45.3950821
            ]
        },
        "region": 5
    },
    {
        "name": "Ville de Victoriaville",
        "address": "400 boul. Jutras Est",
        "city": "Victoriaville",
        "coordinates": {
            "type": "Point",
            "coordinates": [
                -71.945093,
                46.0557067
            ]
        },
        "region": 17
    },
    {
        "name": "Aréna Conrad-Parent et Aréna Guy-Carbonneau",
        "address": "490 rue Jolliet",
        "city": "Sept-Îles",
        "coordinates": {
            "type": "Point",
            "coordinates": [
                -66.1607445,
                50.201427
            ]
        },
        "region": 9
    },
    {
        "name": "Aréna Daniel-Demers",
        "address": "Place Daviault",
        "city": "Fermont",
        "coordinates": {
            "type": "Point",
            "coordinates": [
                -67.0856832,
                52.798134
            ]
        },
        "region": 9
    },
    {
        "name": "Aréna Denis-Perron",
        "address": "1235 de la Digue",
        "city": "Havre-Saint-Pierre",
        "coordinates": {
            "type": "Point",
            "coordinates": [
                -63.59734,
                50.2451092
            ]
        },
        "region": 9
    },
    {
        "name": "Aréna Terry Lalo",
        "address": "C.P. 290",
        "city": "La Romaine",
        "region": 9,
        "coordinates": {
            "type": "Point",
            "coordinates": [
                -60.66009,
                50.21876
            ]
        }
    },
    {
        "name": "Centre Henry-Leonard",
        "address": "70 avenue Michel-Émond",
        "city": "Baie-Comeau",
        "coordinates": {
            "type": "Point",
            "coordinates": [
                -68.1669625,
                49.2096594
            ]
        },
        "region": 9
    },
    {
        "name": "Centre Henri-Desjardins",
        "address": "650 Rue Henri",
        "city": "Baie-Comeau",
        "coordinates": {
            "type": "Point",
            "coordinates": [
                -68.268513,
                49.1915372
            ]
        },
        "region": 9
    },
    {
        "name": "Centre récréatif de Sacré-Coeur",
        "address": "88 rue Principale Nord",
        "city": "Sacré-Coeur",
        "coordinates": {
            "type": "Point",
            "coordinates": [
                -69.80148765254599,
                48.23292224844965
            ]
        },
        "region": 9
    },
    {
        "name": "Centre sportif Charles-Edouard Boucher",
        "address": "2 rue Sirois",
        "city": "Les Escoumins",
        "coordinates": {
            "type": "Point",
            "coordinates": [
                -69.4073556,
                48.3514502
            ]
        },
        "region": 9
    },
    {
        "name": "Complexe Guy-Ouellet",
        "address": "10 10e Rue",
        "city": "Forestville",
        "coordinates": {
            "type": "Point",
            "coordinates": [
                -69.0988146,
                48.7337281
            ]
        },
        "region": 9
    },
    {
        "name": "Complexe récréatif et culturel",
        "address": "21 Des Cèdres",
        "city": "Port-Cartier",
        "coordinates": {
            "type": "Point",
            "coordinates": [
                -66.8832166,
                50.0214086
            ]
        },
        "region": 9
    },
    {
        "name": "Aréna Mario-Vollant",
        "address": "2 rue Tshi-Nuen",
        "city": "Sept-Îles",
        "region": 9,
        "coordinates": null
    },
    {
        "name": "Aréna Brad-ShImun",
        "address": "179 route 138",
        "city": "Natashquan",
        "coordinates": {
            "type": "Point",
            "coordinates": [
                -61.8037,
                50.135
            ]
        },
        "region": 9
    },
    {
        "name": "Aréna Bertrand-Lepage",
        "address": "5 Notre-Dame Est",
        "city": "Trois-Pistoles",
        "coordinates": {
            "type": "Point",
            "coordinates": [
                -69.1753126,
                48.1254565
            ]
        },
        "region": 1
    },
    {
        "name": "Aréna duBreton",
        "address": "4 rue du Collège",
        "city": "Saint-Hubert-de-Rivière-du-Loup",
        "coordinates": {
            "type": "Point",
            "coordinates": [
                -69.1522055,
                47.8164542
            ]
        },
        "region": 1
    },
    {
        "name": "Aréna Gilbert-Desrosiers",
        "address": "127 Ave. Louisbourg",
        "city": "Bonaventure",
        "coordinates": {
            "type": "Point",
            "coordinates": [
                -65.49000640623488,
                48.049300706372414
            ]
        },
        "region": 11
    },
    {
        "name": "Aréna J. Robert-Lévesque",
        "address": "149 7e Rue Ouest",
        "city": "Sainte-Anne-des-Monts",
        "coordinates": {
            "type": "Point",
            "coordinates": [
                -66.49126654658153,
                49.1222709712883
            ]
        },
        "region": 11
    },
    {
        "name": "Carrefour Sportif",
        "address": "55 rue Du Carrefour Sportif",
        "city": "Amqui",
        "coordinates": {
            "type": "Point",
            "coordinates": [
                -67.43587,
                48.462407
            ]
        },
        "region": 1
    },
    {
        "name": "Centre culturel de St-Quentin Inc.",
        "address": "69 rue Pelletier",
        "city": "Saint-Quentin",
        "coordinates": null,
        "province": "NB"
    },
    {
        "name": "Centre Premier Tech",
        "address": "75 rue Frontenac",
        "city": "Rivière-du-Loup",
        "coordinates": {
            "type": "Point",
            "coordinates": [
                -69.536946,
                47.8276084
            ]
        },
        "region": 1
    },
    {
        "name": "Centre récréatif",
        "address": "210 du Carrefour",
        "city": "Grande-Rivière",
        "coordinates": {
            "type": "Point",
            "coordinates": [
                -64.4977258,
                48.4019872
            ]
        },
        "region": 11
    },
    {
        "name": "Centre sportif (Aréna Cabano et Aréna Jacques-Dubé, Notre-Dame-du-Lac)",
        "address": "861 rue Commerciale Nord",
        "city": "Témiscouata-sur-le-Lac",
        "coordinates": {
            "type": "Point",
            "coordinates": [
                -68.8524919,
                47.6578468
            ]
        },
        "region": 1
    },
    {
        "name": "Centre sportif Clément-Tremblay",
        "address": "55 rue Ste-Famille",
        "city": "Chandler",
        "coordinates": {
            "type": "Point",
            "coordinates": [
                -64.681524,
                48.351374
            ]
        },
        "region": 11
    },
    {
        "name": "Centre sportif Gérard-Duchaîne",
        "address": "1 rue St-Jacques Nord",
        "city": "Causapscal",
        "coordinates": {
            "type": "Point",
            "coordinates": [
                -67.221488,
                48.354178
            ]
        },
        "region": 1
    },
    {
        "name": "Centre sportif John-Lapointe",
        "address": "19 boul. Perron Est",
        "city": "Caplan",
        "coordinates": {
            "type": "Point",
            "coordinates": [
                -65.67931345,
                48.1013626
            ]
        },
        "region": 11
    },
    {
        "name": "Colisée Béton Provincial",
        "address": "230 ave. St-Jérôme",
        "city": "Matane",
        "coordinates": {
            "type": "Point",
            "coordinates": [
                -67.530534,
                48.8432051
            ]
        },
        "region": 1
    },
    {
        "name": "Colisée Financière Sun Life",
        "address": "111 2e Rue Ouest",
        "city": "Rimouski",
        "coordinates": {
            "type": "Point",
            "coordinates": [
                -68.5216505,
                48.4417014
            ]
        },
        "region": 1
    },
    {
        "name": "Complexe Louis-Santerre",
        "address": "101-B rue Collin",
        "city": "Saint-Cyprien",
        "coordinates": {
            "type": "Point",
            "coordinates": [
                -69.0208573,
                47.8956008
            ]
        },
        "region": 1
    },
    {
        "name": "Complexe Sportif de Paspébiac",
        "address": "185 Rue Maldemay",
        "city": "Paspébiac",
        "coordinates": {
            "type": "Point",
            "coordinates": [
                -65.2445044,
                48.0339257
            ]
        },
        "region": 11
    },
    {
        "name": "Complexe sportif Jean-Marie-Jobin",
        "address": "121 5e Rue",
        "city": "New Richmond",
        "coordinates": {
            "type": "Point",
            "coordinates": [
                -65.859713,
                48.165988
            ]
        },
        "region": 11
    },
    {
        "name": "Complexe sportif Rosaire-Bélanger",
        "address": "36 rue des Pins Est",
        "city": "Rivière-Bleue",
        "coordinates": {
            "type": "Point",
            "coordinates": [
                -69.0414863,
                47.434991
            ]
        },
        "region": 1
    },
    {
        "name": "Municipalité de Nouvelle",
        "address": "470 rue Francoeur",
        "city": "Nouvelle",
        "coordinates": {
            "type": "Point",
            "coordinates": [
                -66.31330007639667,
                48.13829672759821
            ]
        },
        "region": 11
    },
    {
        "name": "Municipalité de Port-Daniel-Gascons",
        "address": "494 Route 132",
        "city": "Port-Daniel-Gascons",
        "coordinates": {
            "type": "Point",
            "coordinates": [
                -64.969926,
                48.179574
            ]
        },
        "region": 11
    },
    {
        "name": "Municipalité de Saint-Jean-de-Dieu",
        "address": "32 rue Principale Sud",
        "city": "Saint-Jean-de-Dieu",
        "coordinates": {
            "type": "Point",
            "coordinates": [
                -69.0463812,
                48.0010343
            ]
        },
        "region": 1
    },
    {
        "name": "Municipalité des Îles-de-la-Madeleine",
        "address": "460 chemin Principal",
        "city": "Les Îles-de-la-Madeleine",
        "coordinates": {
            "type": "Point",
            "coordinates": [
                -61.8747087,
                47.3740442
            ]
        },
        "region": 11
    },
    {
        "name": "Palais des sports",
        "address": "20 rue de l'École",
        "city": "Saint-Léonard",
        "coordinates": null,
        "province": "NB"
    },
    {
        "name": "Pavillon des loisirs",
        "address": "32 8e avenue",
        "city": "Saint-Fabien",
        "coordinates": {
            "type": "Point",
            "coordinates": [
                -68.8647768,
                48.2942509
            ]
        },
        "region": 1
    },
    {
        "name": "Centre récréatif Luc-Germain de Gaspé",
        "address": "90 rue Jacques-Cartier",
        "city": "Gaspé",
        "coordinates": {
            "type": "Point",
            "coordinates": [
                -64.4764507,
                48.8246714
            ]
        },
        "region": 11
    },
    {
        "name": "Services des loisirs Dégelis",
        "address": "369 Principale",
        "city": "Dégelis",
        "coordinates": {
            "type": "Point",
            "coordinates": [
                -68.64748300000001,
                47.5479375
            ]
        },
        "region": 1
    },
    {
        "name": "Stade du centenaire",
        "address": "40 ave. Hôtel de Ville",
        "city": "Mont-Joli",
        "coordinates": {
            "type": "Point",
            "coordinates": [
                -68.1888627,
                48.5852031
            ]
        },
        "region": 1
    },
    {
        "name": "Ville de Carleton-sur-Mer",
        "address": "629 boul. Perron",
        "city": "Carleton-sur-Mer",
        "coordinates": {
            "type": "Point",
            "coordinates": [
                -66.1220516,
                48.1017851
            ]
        },
        "region": 11
    },
    {
        "name": "Ville d'Edmundston, Loisirs et Culture",
        "address": "7 chemin Canada",
        "city": "Edmundston",
        "coordinates": null,
        "province": "NB"
    },
    {
        "name": "Aréna de Grand-Mère",
        "address": "601 3e avenue",
        "city": "Shawinigan",
        "coordinates": {
            "type": "Point",
            "coordinates": [
                -72.6908327,
                46.6116608
            ]
        },
        "region": 4
    },
    {
        "name": "Aréna de Saint-Boniface",
        "address": "180 rue Langevin",
        "city": "Saint-Boniface",
        "coordinates": {
            "type": "Point",
            "coordinates": [
                -72.8294723,
                46.5015982
            ]
        },
        "region": 4
    },
    {
        "name": "Aréna Émile-Bédard",
        "address": "540 207e avenue ",
        "city": "Shawinigan",
        "coordinates": {
            "type": "Point",
            "coordinates": [
                -72.6547169,
                46.6255432
            ]
        },
        "region": 4
    },
    {
        "name": "Aréna Fernand-Asselin",
        "address": "255 Rue Maurice-L-Duplessis",
        "city": "Trois-Rivières",
        "coordinates": {
            "type": "Point",
            "coordinates": [
                -72.58335651497615,
                46.3654745
            ]
        },
        "region": 4
    },
    {
        "name": "Aréna Gilles-Bourassa",
        "address": "1609 117e rue",
        "city": "Shawinigan",
        "coordinates": {
            "type": "Point",
            "coordinates": [
                -72.75497222485971,
                46.51749080360756
            ]
        },
        "region": 4
    },
    {
        "name": "Aréna Glace Olympique Énergie",
        "address": "260 rue Dessureault",
        "city": "Trois-Rivières",
        "coordinates": {
            "type": "Point",
            "coordinates": [
                -72.5339203,
                46.3740061
            ]
        },
        "region": 4
    },
    {
        "name": "Aréna Jean-Guy Talbot",
        "address": "245 rue de Grandmont",
        "city": "Trois-Rivières",
        "coordinates": {
            "type": "Point",
            "coordinates": [
                -72.5325862,
                46.3684673
            ]
        },
        "region": 4
    },
    {
        "name": "Aréna Jérôme-Cotnoir",
        "address": "5225 rue de Courcelette",
        "city": "Trois-Rivières",
        "coordinates": {
            "type": "Point",
            "coordinates": [
                -72.58992240542631,
                46.3407653
            ]
        },
        "region": 4
    },
    {
        "name": "Aréna le Prix du Gros.com",
        "address": "161 rue Gamelin",
        "city": "Sainte-Anne-de-la-Pérade",
        "coordinates": {
            "type": "Point",
            "coordinates": [
                -72.20346304669187,
                46.56617758944931
            ]
        },
        "region": 4
    },
    {
        "name": "Aréna Pierre-Provencher",
        "address": "180 rue de Monseigneur-Panet",
        "city": "Nicolet",
        "coordinates": {
            "type": "Point",
            "coordinates": [
                -72.6161236,
                46.226352
            ]
        },
        "region": 17
    },
    {
        "name": "Aréna Roland-Rheault",
        "address": "1295 avenue Nicolas-Perrot",
        "city": "Bécancour",
        "coordinates": {
            "type": "Point",
            "coordinates": [
                -72.4362555,
                46.3480884
            ]
        },
        "region": 17
    },
    {
        "name": "Centre culturel et sportif",
        "address": "185 Route 218",
        "city": "Saint-Pierre-les-Becquets",
        "coordinates": {
            "type": "Point",
            "coordinates": [
                -72.1834862,
                46.4874347
            ]
        },
        "region": 17
    },
    {
        "name": "Centre Gervais Auto",
        "address": "1 rue Jacques-Plante",
        "city": "Shawinigan",
        "coordinates": {
            "type": "Point",
            "coordinates": [
                -72.743972,
                46.5473937
            ]
        },
        "region": 4
    },
    {
        "name": "Centre Richard-Lebeau",
        "address": "375 rue Germain",
        "city": "Saint-Léonard-d'Aston",
        "coordinates": {
            "type": "Point",
            "coordinates": [
                -72.3713302,
                46.1099158
            ]
        },
        "region": 17
    },
    {
        "name": "Centre sportif de Louiseville",
        "address": "360 Avenue du Parc",
        "city": "Louiseville",
        "coordinates": {
            "type": "Point",
            "coordinates": [
                -72.94659,
                46.2524163
            ]
        },
        "region": 4
    },
    {
        "name": "Centre sportif et communautaire",
        "address": "52 rue Kenosi",
        "city": "Wemotaci",
        "region": 4,
        "coordinates": {
            "type": "Point",
            "coordinates": [
                -73.7847293,
                47.9026968
            ]
        }
    },
    {
        "name": "Colisée et aréna Claude Mongrain",
        "address": "1740 Avenue Gilles-Villeneuve",
        "city": "Trois-Rivières",
        "coordinates": {
            "type": "Point",
            "coordinates": [
                -72.5594132,
                46.3484859
            ]
        },
        "region": 4
    },
    {
        "name": "Colisée municipal",
        "address": "360 Lucien-Filion",
        "city": "La Tuque",
        "coordinates": {
            "type": "Point",
            "coordinates": [
                -72.78127938372376,
                47.443455521372584
            ]
        },
        "region": 4
    },
    {
        "name": "Complexe sportif Saint-Louis-de-France",
        "address": "155 de la Mairie",
        "city": "Trois-Rivières",
        "coordinates": {
            "type": "Point",
            "coordinates": [
                -72.5995903,
                46.4239364
            ]
        },
        "region": 4
    },
    {
        "name": "Faubourg Mont-Bénilde",
        "address": "1325 ave des Pensées",
        "city": "Bécancour",
        "coordinates": {
            "type": "Point",
            "coordinates": [
                -72.5081348,
                46.3290586
            ]
        },
        "disabled": true,
        "region": 17
    },
    {
        "name": "Sportium municipal",
        "address": "425 boul. St-Joseph",
        "city": "Saint-Tite",
        "coordinates": {
            "type": "Point",
            "coordinates": [
                -72.5610881,
                46.7303146
            ]
        },
        "region": 4
    },
    {
        "name": "Aréna Ahuntsic",
        "address": "10560 rue St-Hubert",
        "city": "Montréal",
        "coordinates": {
            "type": "Point",
            "coordinates": [
                -73.664571,
                45.5571885
            ]
        },
        "region": 6
    },
    {
        "name": "Aréna André-Richard",
        "address": "866 boul. Cadieux",
        "city": "Beauharnois",
        "coordinates": {
            "type": "Point",
            "coordinates": [
                -73.873905,
                45.30154
            ]
        },
        "region": 16
    },
    {
        "name": "Aréna André-St-Laurent",
        "address": "799 rue Lajeunesse",
        "city": "Beloeil",
        "coordinates": {
            "type": "Point",
            "coordinates": [
                -73.2143086,
                45.5739361
            ]
        },
        "region": 16
    },
    {
        "name": "aréna Bill-Durnan",
        "address": "4988 rue Vézina",
        "city": "Montréal",
        "coordinates": {
            "type": "Point",
            "coordinates": [
                -73.6444035,
                45.4948825
            ]
        },
        "region": 6
    },
    {
        "name": "Aréna Bob Birnie",
        "address": "58 avenue Maywood",
        "city": "Pointe-Claire",
        "coordinates": {
            "type": "Point",
            "coordinates": [
                -73.820967,
                45.4593643
            ]
        },
        "region": 6
    },
    {
        "name": "Aréna Camillien-Houde",
        "address": "1696 rue Montcalm",
        "city": "Montréal",
        "coordinates": {
            "type": "Point",
            "coordinates": [
                -73.5598555,
                45.5198915
            ]
        },
        "region": 6
    },
    {
        "name": "Aréna Cartier",
        "address": "100 montée Major",
        "city": "Laval",
        "coordinates": {
            "type": "Point",
            "coordinates": [
                -73.6841373,
                45.5595614
            ]
        },
        "region": 13
    },
    {
        "name": "Aréna Chaumont",
        "address": "8750 avenue Chaumont",
        "city": "Montréal",
        "coordinates": {
            "type": "Point",
            "coordinates": [
                -73.546627,
                45.6109402
            ]
        },
        "region": 6
    },
    {
        "name": "Aréna Chénier",
        "address": "8200 Avenue Chénier",
        "city": "Montréal",
        "coordinates": {
            "type": "Point",
            "coordinates": [
                -73.5410428,
                45.6013625
            ]
        },
        "region": 6
    },
    {
        "name": "Aréna Chomedey",
        "address": "1160 boul. Pie X",
        "city": "Laval",
        "coordinates": {
            "type": "Point",
            "coordinates": [
                -73.7466316,
                45.5472086
            ]
        },
        "region": 13
    },
    {
        "name": "Aréna Clément-Jetté",
        "address": "8780 avenue Dubuisson",
        "city": "Montréal",
        "coordinates": {
            "type": "Point",
            "coordinates": [
                -73.5168712,
                45.6015372
            ]
        },
        "region": 6
    },
    {
        "name": "Aréna Cynthia Coull",
        "address": "195 rue Empire",
        "city": "Longueuil",
        "coordinates": {
            "type": "Point",
            "coordinates": [
                -73.48977092785285,
                45.492498
            ]
        },
        "region": 16
    },
    {
        "name": "Aréna de Blainville",
        "address": "1009 rue de la Mairie",
        "city": "Blainville",
        "coordinates": {
            "type": "Point",
            "coordinates": [
                -73.8836227,
                45.6874639
            ]
        },
        "region": 15
    },
    {
        "name": "Aréna de Boisbriand",
        "address": "999 boul. de la Grande-Allée",
        "city": "Boisbriand",
        "coordinates": {
            "type": "Point",
            "coordinates": [
                -73.83967037899811,
                45.613592600000004
            ]
        },
        "region": 15
    },
    {
        "name": "Aréna de Dorval",
        "address": "1450 avenue Dawson",
        "city": "Dorval",
        "coordinates": {
            "type": "Point",
            "coordinates": [
                -73.75723207902219,
                45.44192623778875
            ]
        },
        "region": 6
    },
    {
        "name": "Aréna de Kirkland (Kirkland sports complex)",
        "address": "16950 boulevard Hymus",
        "city": "Kirkland",
        "coordinates": {
            "type": "Point",
            "coordinates": [
                -73.8467603,
                45.4498299
            ]
        },
        "region": 6
    },
    {
        "name": "Aréna de la Cité-des-Jeunes",
        "address": "2580 rue Paul-Gérin-Lajoie",
        "city": "Vaudreuil-Dorion",
        "coordinates": {
            "type": "Point",
            "coordinates": [
                -74.0288102,
                45.3918892
            ]
        },
        "region": 16
    },
    {
        "name": "Aréna de la Ville de La Prairie",
        "address": "250 rue du Vice-Roi",
        "city": "La Prairie",
        "coordinates": {
            "type": "Point",
            "coordinates": [
                -73.466026,
                45.4002919
            ]
        },
        "region": 16
    },
    {
        "name": "Aréna de l'université Concordia (Ed Meagher)",
        "address": "7200 rue Sherbrooke ouest",
        "city": "Montréal",
        "coordinates": {
            "type": "Point",
            "coordinates": [
                -73.638952,
                45.4575911
            ]
        },
        "region": 6
    },
    {
        "name": "Aréna de l'université de Montréal",
        "address": "2050 boul Édouard-Montpetit",
        "city": "Montréal",
        "coordinates": {
            "type": "Point",
            "coordinates": [
                -73.6123128650986,
                45.5093376
            ]
        },
        "region": 6
    },
    {
        "name": "Aréna de l'université McGill (aréna McConnell)",
        "address": "3883 rue University",
        "city": "Montréal",
        "coordinates": {
            "type": "Point",
            "coordinates": [
                -73.58188576666666,
                45.50914450222222
            ]
        },
        "region": 6
    },
    {
        "name": "Aréna de Mascouche",
        "address": "840 rue Brien",
        "city": "Mascouche",
        "coordinates": {
            "type": "Point",
            "coordinates": [
                -73.599432,
                45.739634
            ]
        },
        "region": 14
    },
    {
        "name": "Aréna de Rosemère",
        "address": "155 rue Charbonneau",
        "city": "Rosemère",
        "coordinates": {
            "type": "Point",
            "coordinates": [
                -73.7838,
                45.637394
            ]
        },
        "region": 15
    },
    {
        "name": "aréna Doug-Harvey",
        "address": "4985 avenue West Hill",
        "city": "Montréal",
        "coordinates": {
            "type": "Point",
            "coordinates": [
                -73.6385717440526,
                45.47140995
            ]
        },
        "region": 6
    },
    {
        "name": "Aréna du Collège Bourget",
        "address": "65 rue St-Pierre",
        "city": "Rigaud",
        "coordinates": {
            "type": "Point",
            "coordinates": [
                -74.3096332,
                45.473443
            ]
        },
        "region": 16
    },
    {
        "name": "Aréna du Collège de l'Assomption",
        "address": "150 rue Dorval",
        "city": "L'Assomption",
        "coordinates": {
            "type": "Point",
            "coordinates": [
                -73.4186304,
                45.8278518
            ]
        },
        "region": 14
    },
    {
        "name": "Aréna du Collège Jean-de-Brébeuf",
        "address": "5635 rue Decelles",
        "city": "Montréal",
        "coordinates": {
            "type": "Point",
            "coordinates": [
                -73.6907081,
                45.5052527
            ]
        },
        "region": 6
    },
    {
        "name": "Aréna du Collège McDonald",
        "address": "21111 Chemin Lakeshore",
        "city": "Sainte-Anne-de-Bellevue",
        "coordinates": {
            "type": "Point",
            "coordinates": [
                -73.9418275,
                45.4126524
            ]
        },
        "region": 6
    },
    {
        "name": "Aréna du Collège Notre-Dame",
        "address": "3791 chemin Queen-Mary",
        "city": "Montréal",
        "coordinates": {
            "type": "Point",
            "coordinates": [
                -73.62237774638291,
                45.4932948
            ]
        },
        "region": 6
    },
    {
        "name": "Aréna Émile \"Butch\" Bouchard",
        "address": "200 rue de Gentilly Est",
        "city": "Longueuil",
        "coordinates": {
            "type": "Point",
            "coordinates": [
                -73.4920966,
                45.5405319
            ]
        },
        "region": 16
    },
    {
        "name": "Aréna Eric-Sharp",
        "address": "600 avenue Oak",
        "city": "Saint-Lambert",
        "coordinates": {
            "type": "Point",
            "coordinates": [
                -73.5088716,
                45.5046862
            ]
        },
        "region": 16
    },
    {
        "name": "Aréna Étienne-Desmarteau",
        "address": "3430 rue De Bellechasse",
        "city": "Montréal",
        "coordinates": {
            "type": "Point",
            "coordinates": [
                -73.58023942656416,
                45.555531650000006
            ]
        },
        "region": 6
    },
    {
        "name": "Aréna Fleury",
        "address": "3700 rue Fleury Est",
        "city": "Montréal",
        "coordinates": {
            "type": "Point",
            "coordinates": [
                -73.637882,
                45.5834718
            ]
        },
        "region": 6
    },
    {
        "name": "Aréna Francis Bouillon",
        "address": "3175 rue Rouen",
        "city": "Montréal",
        "coordinates": {
            "type": "Point",
            "coordinates": [
                -73.55101582727272,
                45.54191052727273
            ]
        },
        "region": 6
    },
    {
        "name": "Aréna Garon",
        "address": "11212 avenue Garon",
        "city": "Montréal",
        "coordinates": {
            "type": "Point",
            "coordinates": [
                -73.6376267,
                45.5947285
            ]
        },
        "region": 6
    },
    {
        "name": "Aréna Gilles Lupien",
        "address": "200 rue Macvicar",
        "city": "Brownsburg-Chatham",
        "coordinates": {
            "type": "Point",
            "coordinates": [
                -74.4040711,
                45.6749388
            ]
        },
        "region": 15
    },
    {
        "name": "Aréna Hartland-Monahan",
        "address": "6200 boul. Arthur-Sauvé",
        "city": "Laval",
        "coordinates": {
            "type": "Point",
            "coordinates": [
                -73.8658532835298,
                45.5472318
            ]
        },
        "region": 13
    },
    {
        "name": "Aréna Howie-Morenz",
        "address": "8650 avenue Querbes",
        "city": "Montréal",
        "coordinates": {
            "type": "Point",
            "coordinates": [
                -73.6420111,
                45.534219
            ]
        },
        "region": 6
    },
    {
        "name": "Aréna Jacques Lemaire",
        "address": "8681 boul. Champlain",
        "city": "Montréal",
        "coordinates": {
            "type": "Point",
            "coordinates": [
                -73.621895,
                45.4191291
            ]
        },
        "region": 6
    },
    {
        "name": "Aréna Jacques-Cartier",
        "address": "1143 rue De Lorimier",
        "city": "Longueuil",
        "coordinates": {
            "type": "Point",
            "coordinates": [
                -73.5005801,
                45.5176779
            ]
        },
        "region": 16
    },
    {
        "name": "Aréna Jean-Rougeau",
        "address": "10 rue Bella-Vista",
        "city": "Saint-Basile-le-Grand",
        "coordinates": {
            "type": "Point",
            "coordinates": [
                -73.2846502,
                45.5098358
            ]
        },
        "region": 16
    },
    {
        "name": "Aréna Joannie Rochette",
        "address": "880 rue Giroux",
        "city": "Berthierville",
        "coordinates": {
            "type": "Point",
            "coordinates": [
                -73.1942445,
                46.0844012
            ]
        },
        "region": 14
    },
    {
        "name": "Aréna Julien-Beauregard",
        "address": "727 rue Desjardins",
        "city": "Marieville",
        "coordinates": {
            "type": "Point",
            "coordinates": [
                -73.1498264,
                45.4306849
            ]
        },
        "region": 16
    },
    {
        "name": "Aréna Kevin Lowe - Pierre Pagé",
        "address": "80 avenue Hamford",
        "city": "Lachute",
        "coordinates": {
            "type": "Point",
            "coordinates": [
                -74.3513876,
                45.6544184
            ]
        },
        "region": 15
    },
    {
        "name": "Aréna Le Gardeur",
        "address": "525 rue Laverdière",
        "city": "Repentigny",
        "coordinates": {
            "type": "Point",
            "coordinates": [
                -73.4755498,
                45.76055
            ]
        },
        "region": 14
    },
    {
        "name": "Aréna L'Olympia",
        "address": "611 20e avenue",
        "city": "Deux-Montagnes",
        "coordinates": {
            "type": "Point",
            "coordinates": [
                -73.91691259480274,
                45.543824900000004
            ]
        },
        "region": 15
    },
    {
        "name": "Aréna Lower Canada College",
        "address": "4099 avenue Royal",
        "city": "Montréal",
        "coordinates": {
            "type": "Point",
            "coordinates": [
                -73.6229761,
                45.4705815
            ]
        },
        "region": 6
    },
    {
        "name": "Aréna Lucerne",
        "address": "1750 rue de Neuville",
        "city": "Laval",
        "coordinates": {
            "type": "Point",
            "coordinates": [
                -73.7185099,
                45.6005741
            ]
        },
        "region": 13
    },
    {
        "name": "Aréna Marcel-Larocque",
        "address": "370 avenue Lareau",
        "city": "Saint-Jean-sur-Richelieu",
        "coordinates": {
            "type": "Point",
            "coordinates": [
                -73.2318263,
                45.2939453
            ]
        },
        "region": 16
    },
    {
        "name": "Aréna Marcellin-Wilson",
        "address": "11301 boul. De l'Acadie",
        "city": "Montréal",
        "coordinates": {
            "type": "Point",
            "coordinates": [
                -73.6842383,
                45.5359993
            ]
        },
        "region": 6
    },
    {
        "name": "Aréna Martin Lapointe",
        "address": "183 Des érables",
        "city": "Montréal",
        "coordinates": {
            "type": "Point",
            "coordinates": [
                -73.6513223,
                45.4457062
            ]
        },
        "region": 6
    },
    {
        "name": "Aréna Martin St-Louis",
        "address": "655 rue Sylvie",
        "city": "Laval",
        "coordinates": {
            "type": "Point",
            "coordinates": [
                -73.8022709,
                45.5265806
            ]
        },
        "region": 13
    },
    {
        "name": "Aréna Martin-Brodeur",
        "address": "5300 boul. Robert",
        "city": "Montréal",
        "coordinates": {
            "type": "Point",
            "coordinates": [
                -73.6010543,
                45.5858089
            ]
        },
        "region": 6
    },
    {
        "name": "Aréna Maurice-Richard",
        "address": "2800 rue Viau",
        "city": "Montréal",
        "type": "olympique",
        "coordinates": {
            "type": "Point",
            "coordinates": [
                -73.54723979809955,
                45.5622426
            ]
        },
        "region": 6
    },
    {
        "name": "Aréna Michael-Bilodeau",
        "address": "201 boul. Clairevue Est",
        "city": "Saint-Bruno-de-Montarville",
        "coordinates": {
            "type": "Point",
            "coordinates": [
                -73.3390743,
                45.5334366
            ]
        },
        "region": 16
    },
    {
        "name": "Aréna Michel-Normandin",
        "address": "3105 boul. Rome",
        "city": "Brossard",
        "coordinates": {
            "type": "Point",
            "coordinates": [
                -73.4561704684166,
                45.44876845
            ]
        },
        "region": 16
    },
    {
        "name": "Aréna Michel-Normandin",
        "address": "850 avenue Émile-Journault",
        "city": "Montréal",
        "coordinates": {
            "type": "Point",
            "coordinates": [
                -73.63744570939579,
                45.5512045
            ]
        },
        "region": 6
    },
    {
        "name": "Aréna Mike Bossy",
        "address": "163 boul. Ste-Rose Est",
        "city": "Laval",
        "coordinates": {
            "type": "Point",
            "coordinates": [
                -73.75996829243422,
                45.62778739084999
            ]
        },
        "region": 13
    },
    {
        "name": "Aréna Mont-Royal",
        "address": "4365 rue Cartier",
        "city": "Montréal",
        "coordinates": {
            "type": "Point",
            "coordinates": [
                -73.571709,
                45.5330953
            ]
        },
        "region": 6
    },
    {
        "name": "Aréna municipal de Mont-Tremblant",
        "address": "625 rue Cadieux",
        "city": "Mont-Tremblant",
        "coordinates": {
            "type": "Point",
            "coordinates": [
                -74.581538,
                46.125976
            ]
        },
        "region": 15
    },
    {
        "name": "Aréna municipal de Saint-Jean-sur-Richelieu",
        "address": "90 boul. Gouin",
        "city": "Saint-Jean-sur-Richelieu",
        "coordinates": {
            "type": "Point",
            "coordinates": [
                -73.25589223959068,
                45.30084945
            ]
        },
        "region": 16
    },
    {
        "name": "Aréna municipal de Vaudreuil-Dorion",
        "address": "9 rue Jeannotte",
        "city": "Vaudreuil-Dorion",
        "coordinates": {
            "type": "Point",
            "coordinates": [
                -74.0265499,
                45.3971805
            ]
        },
        "region": 16
    },
    {
        "name": "Aréna Olympia",
        "address": "2950 rue Dumont",
        "city": "Longueuil",
        "coordinates": {
            "type": "Point",
            "coordinates": [
                -73.4606197,
                45.5128088
            ]
        },
        "region": 16
    },
    {
        "name": "Aréna Père-Marquette",
        "address": "1605 rue De Bellechasse",
        "city": "Montréal",
        "coordinates": {
            "type": "Point",
            "coordinates": [
                -73.5957296,
                45.5393349
            ]
        },
        "region": 6
    },
    {
        "name": "Aréna Pierre \"Pete\" Morin",
        "address": "1925 rue Saint-Antoine",
        "city": "Montréal",
        "coordinates": {
            "type": "Point",
            "coordinates": [
                -73.6816843,
                45.439831
            ]
        },
        "region": 6
    },
    {
        "name": "Aréna Raymond-Bourque",
        "address": "2345 boul. Thimens",
        "city": "Montréal",
        "coordinates": {
            "type": "Point",
            "coordinates": [
                -73.7020766,
                45.5059898
            ]
        },
        "region": 6
    },
    {
        "name": "Aréna régional de Huntingdon",
        "address": "1567 chemin Fairview",
        "city": "Huntingdon",
        "coordinates": {
            "type": "Point",
            "coordinates": [
                -74.17433808318684,
                45.0801311998667
            ]
        },
        "region": 16
    },
    {
        "name": "Aréna régional de la Rivière-du-Nord",
        "address": "750 rue Filion",
        "city": "Saint-Jérôme",
        "coordinates": {
            "type": "Point",
            "coordinates": [
                -73.9843767,
                45.7885339
            ]
        },
        "region": 15
    },
    {
        "name": "Aréna René-Masson",
        "address": "9175 boul. Perras",
        "city": "Montréal",
        "coordinates": {
            "type": "Point",
            "coordinates": [
                -73.57788754596211,
                45.6515845
            ]
        },
        "region": 6
    },
    {
        "name": "Aréna Repentigny",
        "address": "80 boul. Brien",
        "city": "Repentigny",
        "coordinates": {
            "type": "Point",
            "coordinates": [
                -73.452821,
                45.743266
            ]
        },
        "region": 14
    },
    {
        "name": "Aréna Richard Trottier",
        "address": "3155 rue Esther",
        "city": "Laval",
        "coordinates": {
            "type": "Point",
            "coordinates": [
                -73.7955937,
                45.5761791
            ]
        },
        "region": 13
    },
    {
        "name": "Aréna Roberto-Luongo",
        "address": "7755 rue Colbert",
        "city": "Montréal",
        "coordinates": {
            "type": "Point",
            "coordinates": [
                -73.5961697,
                45.5736184
            ]
        },
        "region": 6
    },
    {
        "name": "Aréna Roch-Lasalle",
        "address": "275 1re avenue",
        "city": "Crabtree",
        "coordinates": {
            "type": "Point",
            "coordinates": [
                -73.4675506,
                45.960846
            ]
        },
        "region": 14
    },
    {
        "name": "Aréna Rodrigue-Gilbert",
        "address": "1515 boul. Du Tricentenaire",
        "city": "Montréal",
        "coordinates": {
            "type": "Point",
            "coordinates": [
                -73.5000362,
                45.6512983
            ]
        },
        "region": 6
    },
    {
        "name": "Aréna Rolland",
        "address": "12000 boul. Rolland",
        "city": "Montréal",
        "coordinates": {
            "type": "Point",
            "coordinates": [
                -73.6192497,
                45.6150034
            ]
        },
        "region": 6
    },
    {
        "name": "Aréna Ronald Caron (CEGEP Saint-Laurent)",
        "address": "625 avenue Sainte-Croix",
        "city": "Montréal",
        "coordinates": {
            "type": "Point",
            "coordinates": [
                -73.6727102708738,
                45.51185837184466
            ]
        },
        "region": 6
    },
    {
        "name": "Aréna Saint-Canut",
        "address": "15005 chemin Dupuis",
        "city": "Mirabel",
        "coordinates": {
            "type": "Point",
            "coordinates": [
                -74.0644429,
                45.7098696
            ]
        },
        "region": 15
    },
    {
        "name": "Aréna Saint-Charles",
        "address": "1055 rue d'Hibernia",
        "city": "Montréal",
        "coordinates": {
            "type": "Point",
            "coordinates": [
                -73.5636344,
                45.4796566
            ]
        },
        "region": 6
    },
    {
        "name": "Aréna Saint-Donat",
        "address": "6750 rue de Marseille",
        "city": "Montréal",
        "coordinates": {
            "type": "Point",
            "coordinates": [
                -73.53833538888888,
                45.5827282
            ]
        },
        "region": 6
    },
    {
        "name": "Aréna Saint-François",
        "address": "9449 rue de Tilly",
        "city": "Laval",
        "coordinates": {
            "type": "Point",
            "coordinates": [
                -73.5775267,
                45.6741599
            ]
        },
        "region": 13
    },
    {
        "name": "Aréna Saint-Louis",
        "address": "5633 rue Saint-Dominique",
        "city": "Montréal",
        "coordinates": {
            "type": "Point",
            "coordinates": [
                -73.60099536412007,
                45.52789558539264
            ]
        },
        "region": 6
    },
    {
        "name": "Aréna Saint-Michel",
        "address": "3440 rue Jarry Est",
        "city": "Montréal",
        "coordinates": {
            "type": "Point",
            "coordinates": [
                -73.60740775,
                45.566019383333334
            ]
        },
        "region": 6
    },
    {
        "name": "Aréna Salaberry",
        "address": "158 rue Nicholson",
        "city": "Salaberry-de-Valleyfield",
        "coordinates": {
            "type": "Point",
            "coordinates": [
                -74.1284299,
                45.2510909
            ]
        },
        "region": 16
    },
    {
        "name": "Aréna Samuel-Moskovitch",
        "address": "6985 chemin Mackle",
        "city": "Côte-Saint-Luc",
        "coordinates": {
            "type": "Point",
            "coordinates": [
                -73.67006977851406,
                45.4732042
            ]
        },
        "region": 6
    },
    {
        "name": "Aréna Ville Mont-Royal",
        "address": "1050 chemin Dunkirk",
        "city": "Mont-Royal",
        "coordinates": {
            "type": "Point",
            "coordinates": [
                -73.63989119823175,
                45.514949099999995
            ]
        },
        "region": 6
    },
    {
        "name": "Aréna YMCA",
        "address": "4567 rue Hochelaga",
        "city": "Montréal",
        "coordinates": {
            "type": "Point",
            "coordinates": [
                -73.5449951,
                45.557821
            ]
        },
        "region": 6
    },
    {
        "name": "Aréna Yvon-Chartrand",
        "address": "4100 boul. De la Concorde Est",
        "city": "Laval",
        "coordinates": {
            "type": "Point",
            "coordinates": [
                -73.6752735,
                45.5831223
            ]
        },
        "region": 13
    },
    {
        "name": "Atrium - 1000 de La Gauchetière",
        "address": "1000 rue de La Gauchetière",
        "city": "Montréal",
        "coordinates": {
            "type": "Point",
            "coordinates": [
                -73.5665041,
                45.4983565
            ]
        },
        "region": 6
    },
    {
        "name": "Auditorium de Verdun",
        "address": "4110 boul. LaSalle",
        "city": "Montréal",
        "coordinates": {
            "type": "Point",
            "coordinates": [
                -73.5631167,
                45.46224058181818
            ]
        },
        "region": 6
    },
    {
        "name": "Centre Bell",
        "address": "1909 avenue Des Canadiens-de-Montréal",
        "city": "Montréal",
        "coordinates": {
            "type": "Point",
            "coordinates": [
                -73.5692218,
                45.4971367
            ]
        },
        "region": 6
    },
    {
        "name": "Centre civique de Salaberry-de-Valleyfield",
        "address": "84 rue Marquette",
        "city": "Salaberry-de-Valleyfield",
        "coordinates": {
            "type": "Point",
            "coordinates": [
                -74.1427968,
                45.2673022
            ]
        },
        "region": 16
    },
    {
        "name": "Centre civique Dollard-des-Ormeaux",
        "address": "12001 boul. De Salaberry",
        "city": "Dollard-des-Ormeaux",
        "coordinates": {
            "type": "Point",
            "coordinates": [
                -73.80883787320532,
                45.48453055
            ]
        },
        "region": 6
    },
    {
        "name": "Centre Communautaire intergénérationnel d'outremont",
        "address": "999 ave. McEachran",
        "city": "Montréal",
        "coordinates": {
            "type": "Point",
            "coordinates": [
                -73.6195238137524,
                45.51997325
            ]
        },
        "region": 6
    },
    {
        "name": "Centre de la culture et du sport de Sainte-Julie",
        "address": "201 boul. Armand-Frappier",
        "city": "Sainte-Julie",
        "coordinates": {
            "type": "Point",
            "coordinates": [
                -73.3288117,
                45.5824579
            ]
        },
        "region": 16
    },
    {
        "name": "Centre des glaces Gilles-Chabot",
        "address": "565 boul. de Mortagne",
        "city": "Boucherville",
        "coordinates": {
            "type": "Point",
            "coordinates": [
                -73.43438940038219,
                45.59458345
            ]
        },
        "region": 16
    },
    {
        "name": "Centre des loisirs de Westmount",
        "address": "4675 rue Sainte-Catherine",
        "city": "Westmount",
        "coordinates": {
            "type": "Point",
            "coordinates": [
                -73.595768,
                45.4790415
            ]
        },
        "region": 6
    },
    {
        "name": "Centre d'excellence Sports Rousseau",
        "address": "3600 boul. De la Grande-Allée",
        "city": "Boisbriand",
        "coordinates": {
            "type": "Point",
            "coordinates": [
                -73.8595553,
                45.6311762
            ]
        },
        "region": 15
    },
    {
        "name": "Centre multisport de Châteauguay",
        "address": "255 Boulevard Brisebois",
        "city": "Châteauguay",
        "coordinates": {
            "type": "Point",
            "coordinates": [
                -73.76549969295979,
                45.34306735108736
            ]
        },
        "type": "olympique",
        "region": 16
    },
    {
        "name": "Centre récréatif Aussant",
        "address": "105 rue Saint-Joseph",
        "city": "Saint-Joseph-de-Sorel",
        "coordinates": {
            "type": "Point",
            "coordinates": [
                -73.1276323,
                46.0450698
            ]
        },
        "region": 16
    },
    {
        "name": "Centre récréatif de Beaconsfield",
        "address": "1974 City Lane",
        "city": "Beaconsfield",
        "coordinates": {
            "type": "Point",
            "coordinates": [
                -73.8659914,
                45.4255876
            ]
        },
        "region": 6
    },
    {
        "name": "Centre récréatif Édouard-Rivet (aréna Ralph-Buchanan)",
        "address": "11111 rue Notre-Dame Est",
        "city": "Montréal-Est",
        "coordinates": {
            "type": "Point",
            "coordinates": [
                -73.5008964,
                45.6287669
            ]
        },
        "region": 6
    },
    {
        "name": "Centre récréatif Marcel-Bonin",
        "address": "265 rue Lajoie Sud",
        "city": "Joliette",
        "coordinates": {
            "type": "Point",
            "coordinates": [
                -73.4371014,
                46.0210961
            ]
        },
        "region": 14
    },
    {
        "name": "Centre récréatif Saint-David",
        "address": "25 rue Théroux",
        "city": "Saint-David",
        "coordinates": {
            "type": "Point",
            "coordinates": [
                -72.8588408,
                45.9556996
            ]
        },
        "region": 16
    },
    {
        "name": "Centre sportif Ben Leduc",
        "address": "172 12e Rue",
        "city": "Ferme-Neuve",
        "coordinates": {
            "type": "Point",
            "coordinates": [
                -75.4504086,
                46.7011025
            ]
        },
        "region": 15
    },
    {
        "name": "Centre sportif Damien-Hétu",
        "address": "40 rue Brissette",
        "city": "Sainte-Agathe-des-Monts",
        "coordinates": {
            "type": "Point",
            "coordinates": [
                -74.277298,
                46.0510015
            ]
        },
        "region": 15
    },
    {
        "name": "Centre sportif de Delson",
        "address": "100 avenue de Delson",
        "city": "Delson",
        "coordinates": {
            "type": "Point",
            "coordinates": [
                -73.547235,
                45.373306
            ]
        },
        "region": 16
    },
    {
        "name": "Centre sportif de La Prairie",
        "address": "555 rue Notre-Dame",
        "city": "La Prairie",
        "coordinates": {
            "type": "Point",
            "coordinates": [
                -73.4953164,
                45.4148613
            ]
        },
        "region": 16
    },
    {
        "name": "Centre sportif de Lorraine",
        "address": "74 boul. De Gaulle",
        "city": "Lorraine",
        "coordinates": {
            "type": "Point",
            "coordinates": [
                -73.7824778,
                45.6654496
            ]
        },
        "region": 15
    },
    {
        "name": "Centre sportif de Mercier",
        "address": "18 rue du Parc",
        "city": "Mercier",
        "coordinates": {
            "type": "Point",
            "coordinates": [
                -73.746313,
                45.313579
            ]
        },
        "region": 16
    },
    {
        "name": "Centre sportif de Saint-Antoine",
        "address": "600 35e avenue",
        "city": "Saint-Jérôme",
        "coordinates": {
            "type": "Point",
            "coordinates": [
                -73.980383,
                45.774155
            ]
        },
        "region": 15
    },
    {
        "name": "Centre sportif de Ste-Anne-des-Plaines",
        "address": "130 rue des Saisons",
        "city": "Sainte-Anne-des-Plaines",
        "coordinates": {
            "type": "Point",
            "coordinates": [
                -73.825763,
                45.763696
            ]
        },
        "region": 15
    },
    {
        "name": "Centre sportif Dollard St-Laurent",
        "address": "707 75e avenue",
        "city": "Montréal",
        "coordinates": {
            "type": "Point",
            "coordinates": [
                -73.6289742,
                45.4226953
            ]
        },
        "region": 6
    },
    {
        "name": "Centre sportif et culturel de Brandon",
        "address": "155 rue Saint-Gabriel",
        "city": "Saint-Gabriel-de-Brandon",
        "coordinates": {
            "type": "Point",
            "coordinates": [
                -73.383417,
                46.2926304
            ]
        },
        "region": 14
    },
    {
        "name": "Centre sportif et culturel de la Vallée de la Rouge",
        "address": "1550 chemin du Rapide",
        "city": "Rivière-Rouge",
        "coordinates": {
            "type": "Point",
            "coordinates": [
                -74.863307340451,
                46.4004769
            ]
        },
        "region": 15
    },
    {
        "name": "Centre sportif et culturel de Saint-Thimothée",
        "address": "4949 boul. Hébert",
        "city": "Salaberry-de-Valleyfield",
        "coordinates": {
            "type": "Point",
            "coordinates": [
                -74.05269473934426,
                45.28739859672131
            ]
        },
        "region": 16
    },
    {
        "name": "Centre sportif et culturel du Collège Saint-Jean-Vianney",
        "address": "12640 boul. Gouin Est",
        "city": "Montréal",
        "coordinates": {
            "type": "Point",
            "coordinates": [
                -73.52226468314812,
                45.69285655715775
            ]
        },
        "region": 6
    },
    {
        "name": "Centre sportif Gaétan-Boucher",
        "address": "3850 rue Edgar",
        "city": "Longueuil",
        "coordinates": {
            "type": "Point",
            "coordinates": [
                -73.4599231,
                45.4935817
            ]
        },
        "region": 16
    },
    {
        "name": "Centre sportif Jacques-Lesage",
        "address": "801 rue Alix",
        "city": "Mont-Laurier",
        "coordinates": {
            "type": "Point",
            "coordinates": [
                -75.5000625,
                46.5599305
            ]
        },
        "region": 15
    },
    {
        "name": "Centre sportif régional de Contrecoeur",
        "address": "1555 rue des Saules",
        "city": "Contrecoeur",
        "coordinates": {
            "type": "Point",
            "coordinates": [
                -73.2258299,
                45.8554943
            ]
        },
        "region": 16
    },
    {
        "name": "Centre sportif régional des Copains",
        "address": "4 rue des Copains",
        "city": "Sainte-Martine",
        "coordinates": {
            "type": "Point",
            "coordinates": [
                -73.7988974,
                45.2492844
            ]
        },
        "region": 16
    },
    {
        "name": "Centre sportif régional Les Jardins du Québec",
        "address": "170 rue St-Viateur",
        "city": "Saint-Rémi",
        "coordinates": {
            "type": "Point",
            "coordinates": [
                -73.614282,
                45.255954
            ]
        },
        "region": 16
    },
    {
        "name": "Centre sportif régional Louis-Cyr",
        "address": "50 rue de l'Aqueduc",
        "city": "Napierville",
        "coordinates": {
            "type": "Point",
            "coordinates": [
                -73.4014277,
                45.1931457
            ]
        },
        "region": 16
    },
    {
        "name": "Centre sportif Robert Lebel",
        "address": "995 avenue Simard",
        "city": "Chambly",
        "coordinates": {
            "type": "Point",
            "coordinates": [
                -73.26789557957242,
                45.4373344
            ]
        },
        "region": 16
    },
    {
        "name": "Centre sportif Rosanne-Laflamme",
        "address": "7405 Terrasse du Centre",
        "city": "Longueuil",
        "coordinates": {
            "type": "Point",
            "coordinates": [
                -73.3940204,
                45.4891389
            ]
        },
        "region": 16
    },
    {
        "name": "Centre sportif Saint-Lin-Laurentides",
        "address": "490 rue Saint-Isidore",
        "city": "Saint-Lin-Laurentides",
        "coordinates": {
            "type": "Point",
            "coordinates": [
                -73.757581,
                45.842725
            ]
        },
        "region": 14
    },
    {
        "name": "Centre sportif Soulanges",
        "address": "100 rue des Loisirs",
        "city": "Saint-Polycarpe",
        "coordinates": {
            "type": "Point",
            "coordinates": [
                -74.3089073,
                45.3010974
            ]
        },
        "region": 16
    },
    {
        "name": "Centre sportif Westwood arena",
        "address": "750 avenue Thorncrest",
        "city": "Dorval",
        "coordinates": {
            "type": "Point",
            "coordinates": [
                -73.7641001,
                45.4560223
            ]
        },
        "region": 6
    },
    {
        "name": "Colisée Cardin",
        "address": "200 rue Victoria",
        "city": "Sorel-Tracy",
        "coordinates": {
            "type": "Point",
            "coordinates": [
                -73.1035289,
                46.0402589
            ]
        },
        "region": 16
    },
    {
        "name": "Colisée de Laval",
        "address": "1110 avenue Desnoyers",
        "city": "Laval",
        "coordinates": {
            "type": "Point",
            "coordinates": [
                -73.6499978,
                45.6140954
            ]
        },
        "region": 13
    },
    {
        "name": "Colisée Isabelle-Brasseur",
        "address": "965 rue Choquette",
        "city": "Saint-Jean-sur-Richelieu",
        "coordinates": {
            "type": "Point",
            "coordinates": [
                -73.2784541,
                45.3361961
            ]
        },
        "region": 16
    },
    {
        "name": "Colisée Jean-Béliveau",
        "address": "1755 boul. Jacques-Cartier Est",
        "city": "Longueuil",
        "coordinates": {
            "type": "Point",
            "coordinates": [
                -73.4578606,
                45.5355579
            ]
        },
        "region": 16
    },
    {
        "name": "Complexe du Val d'Espoir",
        "address": "17700 rue du Val d'Espoir",
        "city": "Mirabel",
        "coordinates": {
            "type": "Point",
            "coordinates": [
                -73.93166107416526,
                45.71000004570048
            ]
        },
        "region": 15
    },
    {
        "name": "Complexe Hockey Bonaventure",
        "address": "6605 chemin Côte-de-Liesse",
        "city": "Montréal",
        "coordinates": {
            "type": "Point",
            "coordinates": [
                -73.69369707706203,
                45.4845438646849
            ]
        },
        "region": 6
    },
    {
        "name": "Complexe JC Perreault",
        "address": "620 rue J.-Oswald-Forest",
        "city": "Saint-Roch-de-l'Achigan",
        "coordinates": {
            "type": "Point",
            "coordinates": [
                -73.6062123,
                45.8267539
            ]
        },
        "region": 14
    },
    {
        "name": "Complexe Jean-Laurin",
        "address": "8515 rue St-Jacques",
        "city": "Mirabel",
        "coordinates": {
            "type": "Point",
            "coordinates": [
                -73.983985,
                45.63488
            ]
        },
        "region": 15
    },
    {
        "name": "Complexe récréatif Gadbois",
        "address": "5485 chemin de la Côte Saint-Paul",
        "city": "Montréal",
        "coordinates": {
            "type": "Point",
            "coordinates": [
                -73.593996,
                45.4671852
            ]
        },
        "region": 6
    },
    {
        "name": "Complexe sportif Absolu",
        "address": "15 rue Jacques-Cartier Nord",
        "city": "Saint-Jean-sur-Richelieu",
        "coordinates": {
            "type": "Point",
            "coordinates": [
                -73.25265371869696,
                45.2956772
            ]
        },
        "region": 16
    },
    {
        "name": "Complexe sportif Bell",
        "address": "8000 boul. Leduc",
        "city": "Brossard",
        "coordinates": {
            "type": "Point",
            "coordinates": [
                -73.4466314,
                45.4542632
            ]
        },
        "region": 16
    },
    {
        "name": "Complexe sportif Chambly",
        "address": "3000 boul. Fréchette",
        "city": "Chambly",
        "coordinates": {
            "type": "Point",
            "coordinates": [
                -73.2897923,
                45.4391142
            ]
        },
        "region": 16
    },
    {
        "name": "Complexe sportif de Candiac",
        "address": "10 rue Radisson",
        "city": "Candiac",
        "coordinates": {
            "type": "Point",
            "coordinates": [
                -73.532745,
                45.376546
            ]
        },
        "region": 16
    },
    {
        "name": "Complexe sportif Guimond",
        "address": "4355 autoroute Laval Ouest (440)",
        "city": "Laval",
        "coordinates": {
            "type": "Point",
            "coordinates": [
                -73.7841046,
                45.5623707
            ]
        },
        "region": 13
    },
    {
        "name": "Complexe sportif Longueuil",
        "address": "550 boul. Curé-Poirier Ouest",
        "city": "Longueuil",
        "coordinates": {
            "type": "Point",
            "coordinates": [
                -73.4926351,
                45.5125329
            ]
        },
        "region": 16
    },
    {
        "name": "Complexe sportif Saint-Raphaël",
        "address": "750 boul. Jacques-Bizard",
        "city": "Montréal",
        "coordinates": {
            "type": "Point",
            "coordinates": [
                -73.8762118,
                45.5029885
            ]
        },
        "region": 6
    },
    {
        "name": "Complexe sportif SportScene",
        "address": "550 rue Jolliet",
        "city": "Mont-Saint-Hilaire",
        "coordinates": {
            "type": "Point",
            "coordinates": [
                -73.1832945,
                45.5681102
            ]
        },
        "region": 16
    },
    {
        "name": "Complexe sportif St-Constant",
        "address": "310 rue Wilfrid-Lamarche",
        "city": "Saint-Constant",
        "coordinates": {
            "type": "Point",
            "coordinates": [
                -73.5991173,
                45.3803084
            ]
        },
        "region": 16
    },
    {
        "name": "Complexe sportif St-Lazare",
        "address": "1850 rue des Loisirs",
        "city": "Saint-Lazare",
        "coordinates": {
            "type": "Point",
            "coordinates": [
                -74.1400968,
                45.3967723
            ]
        },
        "region": 16
    },
    {
        "name": "Complexe Walter Buswell",
        "address": "220 boul. Arthur-Sauvé",
        "city": "Saint-Eustache",
        "coordinates": {
            "type": "Point",
            "coordinates": [
                -73.8978556,
                45.5611559
            ]
        },
        "edited": true,
        "region": 15
    },
    {
        "name": "Evolution Ice",
        "address": "2068 route Transcanadienne",
        "city": "Dorval",
        "coordinates": {
            "type": "Point",
            "coordinates": [
                -73.78532835057472,
                45.48335020632184
            ]
        },
        "region": 6
    },
    {
        "name": "Excellence sur glace",
        "address": "2950 rue Edmond",
        "city": "Kirkland",
        "coordinates": {
            "type": "Point",
            "coordinates": [
                -73.8397822,
                45.4519758
            ]
        },
        "region": 6
    },
    {
        "name": "Hockey Etcetera",
        "address": "5920 chemin de la Côte-de-Liesse",
        "city": "Mont-Royal",
        "coordinates": {
            "type": "Point",
            "coordinates": [
                -73.6570921,
                45.5162501
            ]
        },
        "region": 6
    },
    {
        "name": "Kahnawake sports complex",
        "address": "Route 138",
        "city": "Kahnawake",
        "region": 16,
        "coordinates": {
            "type": "Point",
            "coordinates": [
                -73.6717269,
                45.4026492
            ]
        }
    },
    {
        "name": "Le Sportium",
        "address": "105 place Charles-Lemoyne",
        "city": "Sainte-Catherine",
        "coordinates": {
            "type": "Point",
            "coordinates": [
                -73.54749857692308,
                45.400076661538456
            ]
        },
        "region": 16
    },
    {
        "name": "Les complexes sportifs Terrebonne / Cité du Sport",
        "address": "2485 boul. des Entreprises",
        "city": "Terrebonne",
        "coordinates": {
            "type": "Point",
            "coordinates": [
                -73.70565881497137,
                45.72174378708735
            ]
        },
        "region": 14
    },
    {
        "name": "Les complexes sportifs Terrebonne / Forum",
        "address": "6881 boul. Laurier",
        "city": "Terrebonne",
        "coordinates": {
            "type": "Point",
            "coordinates": [
                -73.725798,
                45.764788
            ]
        },
        "region": 14
    },
    {
        "name": "Les complexes sportifs Terrebonne / Multiglace",
        "address": "1050 rue Nationale",
        "city": "Terrebonne",
        "coordinates": {
            "type": "Point",
            "coordinates": [
                -73.622133,
                45.710006
            ]
        },
        "region": 14
    },
    {
        "name": "Patinoire Deux-Montagnes",
        "address": "2602 boul. des Promenades",
        "city": "Deux-Montagnes",
        "coordinates": {
            "type": "Point",
            "coordinates": [
                -73.920616,
                45.541799
            ]
        },
        "region": 15
    },
    {
        "name": "Place Bell",
        "address": "1950 rue Claude-Gagné",
        "city": "Laval",
        "type": "olympique",
        "coordinates": {
            "type": "Point",
            "coordinates": [
                -73.7219463,
                45.5563529
            ]
        },
        "opendata": false,
        "region": 13
    },
    {
        "name": "Sportplex de l'Énergie",
        "address": "150 rue Jean-Coutu",
        "city": "Varennes",
        "coordinates": {
            "type": "Point",
            "coordinates": [
                -73.3832788,
                45.6311881
            ]
        },
        "region": 16
    },
    {
        "name": "Sportplex de l'Énergie",
        "address": "150 rue Jean-Coutu",
        "city": "Varennes",
        "coordinates": {
            "type": "Point",
            "coordinates": [
                -73.3832788,
                45.6311881
            ]
        },
        "region": 16
    },
    {
        "name": "Sportplexe Pierrefonds",
        "address": "14700 boul. de Pierrefonds",
        "city": "Montréal",
        "coordinates": {
            "type": "Point",
            "coordinates": [
                -73.8574695,
                45.4857293
            ]
        },
        "region": 6
    },
    {
        "name": "Sportplexe Pierrefonds",
        "address": "14700 boul. de Pierrefonds",
        "city": "Montréal",
        "coordinates": {
            "type": "Point",
            "coordinates": [
                -73.8574695,
                45.4857293
            ]
        },
        "region": 6
    },
    {
        "name": "The Legion Rink",
        "address": "220 ave Bedbrook",
        "city": "Montréal-Ouest",
        "coordinates": {
            "type": "Point",
            "coordinates": [
                -73.6523209,
                45.4523122
            ]
        },
        "region": 6
    },
    {
        "name": "The Legion Rink",
        "address": "220 ave Bedbrook",
        "city": "Montréal-Ouest",
        "coordinates": {
            "type": "Point",
            "coordinates": [
                -73.6523209,
                45.4523122
            ]
        },
        "region": 6
    },
    {
        "name": "Aréna Stéphane-Richer",
        "address": "530 rue Charles-Auguste-Montreuil",
        "city": "Saint-André-Avellin",
        "coordinates": {
            "type": "Point",
            "coordinates": [
                -75.04640033709707,
                45.72563595
            ]
        },
        "region": 7
    },
    {
        "name": "Centre Meredith",
        "address": "23 ch. Cecil",
        "city": "Chelsea",
        "coordinates": {
            "type": "Point",
            "coordinates": [
                -75.7929962784732,
                45.50712695
            ]
        },
        "region": 7
    },
    {
        "name": "Centre Meredith",
        "address": "23 ch. Cecil",
        "city": "Chelsea",
        "coordinates": {
            "type": "Point",
            "coordinates": [
                -75.7929962784732,
                45.50712695
            ]
        },
        "region": 7
    },
    {
        "name": "Complexe sportif du Haut-Pontiac",
        "address": "52 Chemin de Pembroke",
        "city": "L'Isle-aux-Allumettes",
        "coordinates": {
            "type": "Point",
            "coordinates": [
                -77.07086294200184,
                45.910179150000005
            ]
        },
        "region": 7
    },
    {
        "name": "Complexe sportif La Pêche",
        "address": "20 Ch. Raphaël",
        "city": "La Pêche",
        "coordinates": {
            "type": "Point",
            "coordinates": [
                -76.0334505,
                45.6448505
            ]
        },
        "region": 7
    },
    {
        "name": "Complexe sportif Robert-Hartley",
        "address": "600 Higginson",
        "city": "Hawkesbury",
        "coordinates": null,
        "province": "ON"
    },
    {
        "name": "Municipalité de Papineauville",
        "address": "188 rue Jeanne-D'Arc",
        "city": "Papineauville",
        "coordinates": {
            "type": "Point",
            "coordinates": [
                -75.0184233,
                45.6193509
            ]
        },
        "region": 7
    },
    {
        "name": "Sportium de Val-des-Monts",
        "address": "5 Chemin du Manoir",
        "city": "Val-des-Monts",
        "coordinates": {
            "type": "Point",
            "coordinates": [
                -75.61765133973164,
                45.59848657107893
            ]
        },
        "region": 7
    },
    {
        "name": "Ville de Gatineau - Parcs et infrastructures récréatives",
        "address": "144 Boul. de l'hôpital",
        "city": "Gatineau",
        "coordinates": {
            "type": "Point",
            "coordinates": [
                -75.68716759398535,
                45.481816499999994
            ]
        },
        "region": 7
    },
    {
        "name": "Ville de Gatineau - Section des arénas",
        "address": "850 Boul. La Gappe",
        "city": "Gatineau",
        "coordinates": {
            "type": "Point",
            "coordinates": [
                -75.68204263621817,
                45.48308625
            ]
        },
        "region": 7
    },
    {
        "name": "Ville de Gatineau - Section des arénas",
        "address": "100 Edmonton",
        "city": "Gatineau",
        "coordinates": {
            "type": "Point",
            "coordinates": [
                -75.73353928898175,
                45.4520572
            ]
        },
        "region": 7
    },
    {
        "name": "Ville de Gatineau - Section des arénas",
        "address": "850 Boul. La Gappe",
        "city": "Gatineau",
        "coordinates": {
            "type": "Point",
            "coordinates": [
                -75.68204263621817,
                45.48308625
            ]
        },
        "region": 7
    },
    {
        "name": "Ville de Maniwaki, Service des loisirs et de la culture",
        "address": "186 rue Principale Sud",
        "city": "Maniwaki",
        "coordinates": {
            "type": "Point",
            "coordinates": [
                -75.9818114,
                46.3743248
            ]
        },
        "region": 7
    },
    {
        "name": "Ville de Thurso",
        "address": "161 rue Galipeau",
        "city": "Thurso",
        "coordinates": {
            "type": "Point",
            "coordinates": [
                -75.2435886,
                45.5993104
            ]
        },
        "region": 7
    },
    {
        "name": "Complexe Brancahud-Brière",
        "address": "499 Boul. Labrosse",
        "city": "Gatineau",
        "coordinates": {
            "type": "Point",
            "coordinates": [
                -75.6446323,
                45.4975545
            ]
        },
        "region": 7
    },
    {
        "name": "Aréna  Réjean-Lemelin",
        "address": "1300 rue Pompadour",
        "city": "Québec",
        "coordinates": {
            "type": "Point",
            "coordinates": [
                -71.2688608,
                46.8876125
            ]
        },
        "region": 3
    },
    {
        "name": "Aréna 2 glaces Val-Bélair",
        "address": "1515 rue Innovation",
        "city": "Québec",
        "coordinates": {
            "type": "Point",
            "coordinates": [
                -71.4181515,
                46.8595157
            ]
        },
        "region": 3
    },
    {
        "name": "Aréna 76",
        "address": "920 St-Gérard",
        "city": "Disraeli",
        "coordinates": {
            "type": "Point",
            "coordinates": [
                -71.3535032,
                45.9077777
            ]
        },
        "region": 12
    },
    {
        "name": "Aréna André-Lacroix",
        "address": "7300 boul. de la Rive-Sud",
        "city": "Lévis",
        "coordinates": {
            "type": "Point",
            "coordinates": [
                -71.1524224,
                46.8138842
            ]
        },
        "region": 12
    },
    {
        "name": "Aréna Bardy",
        "address": "2280 Monseigneur-Gosselin",
        "city": "Québec",
        "coordinates": {
            "type": "Point",
            "coordinates": [
                -71.2226241,
                46.843468
            ]
        },
        "region": 3
    },
    {
        "name": "Aréna Bruno-Verret",
        "address": "981 Route Lagueux",
        "city": "Lévis",
        "type": "olympique",
        "coordinates": {
            "type": "Point",
            "coordinates": [
                -71.3129913,
                46.6521328
            ]
        },
        "region": 12
    },
    {
        "name": "Aréna BSR",
        "address": "585 rue Aréna",
        "city": "Lévis",
        "coordinates": {
            "type": "Point",
            "coordinates": [
                -71.2940632,
                46.7087772
            ]
        },
        "region": 12
    },
    {
        "name": "Aréna Clément-Boulanger",
        "address": "28 150 Rue Hodson",
        "city": "Saint-Gabriel-de-Valcartier",
        "coordinates": {
            "type": "Point",
            "coordinates": [
                -71.4999935,
                46.8948727
            ]
        },
        "region": 3
    },
    {
        "name": "Aréna Clément-Boulanger",
        "address": "150 Rue Hodson",
        "city": "Saint-Gabriel-de-Valcartier",
        "coordinates": {
            "type": "Point",
            "coordinates": [
                -71.4999935,
                46.8948727
            ]
        },
        "region": 3
    },
    {
        "name": "Aréna Côte-de-Beaupré",
        "address": "10991 rue des Montagnards",
        "city": "Beaupré",
        "coordinates": {
            "type": "Point",
            "coordinates": [
                -70.9007241,
                47.041386
            ]
        },
        "region": 3
    },
    {
        "name": "Aréna de Beauceville",
        "address": "116 125e Rue",
        "city": "Beauceville",
        "coordinates": {
            "type": "Point",
            "coordinates": [
                -70.7707778,
                46.2120057
            ]
        },
        "region": 12
    },
    {
        "name": "Aréna de Black Lake",
        "address": "4030 rue Lord",
        "city": "Thetford Mines",
        "coordinates": {
            "type": "Point",
            "coordinates": [
                -71.3650661,
                46.0481023
            ]
        },
        "region": 12
    },
    {
        "name": "Aréna de Clermont",
        "address": "31 rue Larouche",
        "city": "Clermont",
        "coordinates": {
            "type": "Point",
            "coordinates": [
                -70.2257174,
                47.6879751
            ]
        },
        "region": 3
    },
    {
        "name": "Aréna de Lévis",
        "address": "29 rue Vincent-Chagnon",
        "city": "Lévis",
        "coordinates": {
            "type": "Point",
            "coordinates": [
                -71.1759197,
                46.8024371
            ]
        },
        "region": 12
    },
    {
        "name": "Aréna de Montmagny",
        "address": "21 avenue Sainte-Brigitte Nord",
        "city": "Montmagny",
        "coordinates": {
            "type": "Point",
            "coordinates": [
                -70.5632129831863,
                46.983875499999996
            ]
        },
        "region": 12
    },
    {
        "name": "Aréna de Saint-Côme",
        "address": "1517 19e rue",
        "city": "Saint-Côme-Linière",
        "coordinates": {
            "type": "Point",
            "coordinates": [
                -70.5194168,
                46.0579216
            ]
        },
        "region": 12
    },
    {
        "name": "Aréna de Saint-Pamphile",
        "address": "245 rue St-Pierre",
        "city": "Saint-Pamphile",
        "coordinates": {
            "type": "Point",
            "coordinates": [
                -69.7885769,
                46.9604998
            ]
        },
        "region": 12
    },
    {
        "name": "Aréna de Saint-Ubalde",
        "address": "400 rue de l'Aréna",
        "city": "Saint-Ubalde",
        "coordinates": {
            "type": "Point",
            "coordinates": [
                -72.2663216,
                46.7557004
            ]
        },
        "region": 3
    },
    {
        "name": "Aréna de St-Charles-de-Bellechasse",
        "address": "26 av. Commerciale",
        "city": "Saint-Charles-de-Bellechasse",
        "coordinates": {
            "type": "Point",
            "coordinates": [
                -70.944479,
                46.7742482
            ]
        },
        "region": 12
    },
    {
        "name": "Aréna Duberger",
        "address": "3050 boul. Central ",
        "city": "Québec",
        "coordinates": {
            "type": "Point",
            "coordinates": [
                -71.2946775,
                46.814978
            ]
        },
        "region": 3
    },
    {
        "name": "Aréna Gaétan-Duchesne",
        "address": "2650 d'Alembert",
        "city": "Québec",
        "coordinates": {
            "type": "Point",
            "coordinates": [
                -71.32489437872198,
                46.809427
            ]
        },
        "region": 3
    },
    {
        "name": "Aréna J.-É.-Métivier",
        "address": "80 Route Saint-Gérard",
        "city": "Saint-Damien-de-Buckland",
        "coordinates": {
            "type": "Point",
            "coordinates": [
                -70.66935666727545,
                46.6296847
            ]
        },
        "region": 12
    },
    {
        "name": "Aréna Jacques-Côté",
        "address": "2020 rue Narcisse-Roy",
        "city": "Québec",
        "coordinates": {
            "type": "Point",
            "coordinates": [
                -71.2453161,
                46.7751448
            ]
        },
        "region": 3
    },
    {
        "name": "Aréna Lac-Etchemin",
        "address": "208 2e Avenue",
        "city": "Lac-Etchemin",
        "coordinates": {
            "type": "Point",
            "coordinates": [
                -70.5044147,
                46.3963804
            ]
        },
        "region": 12
    },
    {
        "name": "Aréna les Galeries de la Capitale",
        "address": "5401 boulevard des Galeries",
        "city": "Québec",
        "coordinates": {
            "type": "Point",
            "coordinates": [
                -71.299996,
                46.8288373
            ]
        },
        "region": 3
    },
    {
        "name": "Aréna Luc et Marie-Claude de Baie-Saint-Paul",
        "address": "11 rue Forget",
        "city": "Baie-Saint-Paul",
        "coordinates": {
            "type": "Point",
            "coordinates": [
                -70.5079719,
                47.4409338
            ]
        },
        "region": 3
    },
    {
        "name": "Aréna Marcel-Dutil",
        "address": "120 1re Avenue Sud",
        "city": "Saint-Gédéon-de-Beauce",
        "coordinates": {
            "type": "Point",
            "coordinates": [
                -70.64274691806578,
                45.852980171950676
            ]
        },
        "region": 12
    },
    {
        "name": "Aréna municipal de St-Joseph-de-Beauce",
        "address": "713 av. Robert-Cliche",
        "city": "Saint-Joseph-de-Beauce",
        "coordinates": {
            "type": "Point",
            "coordinates": [
                -70.88083090773904,
                46.3157335
            ]
        },
        "region": 12
    },
    {
        "name": "Aréna Patrick Poulin",
        "address": "22 av. Chanoine-Côté",
        "city": "Québec",
        "coordinates": {
            "type": "Point",
            "coordinates": [
                -71.256216,
                46.8150557
            ]
        },
        "edited": true,
        "region": 3
    },
    {
        "name": "Aréna Saint-Édouard-de-Frampton",
        "address": "107-A  rue Sainte-Anne",
        "city": "Frampton",
        "coordinates": {
            "type": "Point",
            "coordinates": [
                -70.8075639,
                46.4632434
            ]
        },
        "region": 12
    },
    {
        "name": "Aréna Saint-Honoré-de-Shenley",
        "address": "453 rue Ennis",
        "city": "Saint-Honoré-de-Shenley",
        "coordinates": {
            "type": "Point",
            "coordinates": [
                -70.8257092,
                45.9639515
            ]
        },
        "region": 12
    },
    {
        "name": "Aréna Saint-Prosper",
        "address": "2585 30e rue",
        "city": "Saint-Prosper",
        "coordinates": {
            "type": "Point",
            "coordinates": [
                -70.478177,
                46.213575
            ]
        },
        "region": 12
    },
    {
        "name": "Aréna Saint-Raymond",
        "address": "160 Place de l'Église",
        "city": "Saint-Raymond",
        "coordinates": {
            "type": "Point",
            "coordinates": [
                -71.8347071,
                46.8919696
            ]
        },
        "region": 3
    },
    {
        "name": "Aréna Saint-Romuald",
        "address": "525 4e avenue",
        "city": "Lévis",
        "coordinates": {
            "type": "Point",
            "coordinates": [
                -71.2341314,
                46.7492561
            ]
        },
        "region": 12
    },
    {
        "name": "Aréna St-Éphrem",
        "address": "80 route 271 Sud",
        "city": "Saint-Éphrem-de-Beauce",
        "coordinates": {
            "type": "Point",
            "coordinates": [
                -70.94583091845936,
                46.06467026691617
            ]
        },
        "region": 12
    },
    {
        "name": "Arpidrome",
        "address": "750 de la Sorbonne",
        "city": "Québec",
        "coordinates": {
            "type": "Point",
            "coordinates": [
                -71.25466694733508,
                46.864005296201476
            ]
        },
        "region": 3
    },
    {
        "name": "Auquaréna de Charny",
        "address": "8001 av. des Églises",
        "city": "Lévis",
        "coordinates": {
            "type": "Point",
            "coordinates": [
                -71.2665138,
                46.7222937
            ]
        },
        "region": 12
    },
    {
        "name": "Centre Bombardier",
        "address": "600 9e Rue Boulevard Desrochers",
        "city": "La Pocatière",
        "coordinates": {
            "type": "Point",
            "coordinates": [
                -70.0323903,
                47.3694832
            ]
        },
        "region": 1
    },
    {
        "name": "Centre Bruno-Berret",
        "address": "3030 route Lagueux",
        "city": "Lévis",
        "coordinates": {
            "type": "Point",
            "coordinates": [
                -71.3811369,
                46.7009839
            ]
        },
        "region": 12
    },
    {
        "name": "Centre Caztel",
        "address": "905 route Saint-Martin",
        "city": "Sainte-Marie",
        "coordinates": {
            "type": "Point",
            "coordinates": [
                -71.0308737,
                46.4516031
            ]
        },
        "region": 12
    },
    {
        "name": "Centre communautaire Michel Labadie",
        "address": "3705 avenue Chauveau",
        "city": "Québec",
        "coordinates": {
            "type": "Point",
            "coordinates": [
                -71.34658383097764,
                46.832500800000005
            ]
        },
        "region": 3
    },
    {
        "name": "Centre des loisirs Desjardins d'East-Broughton",
        "address": "300 rue Pelletier",
        "city": "East Broughton",
        "coordinates": {
            "type": "Point",
            "coordinates": [
                -71.07517172442485,
                46.21494663492514
            ]
        },
        "region": 12
    },
    {
        "name": "Centre Mario-Gosselin",
        "address": "555 St-Alphonse Nord",
        "city": "Thetford Mines",
        "coordinates": {
            "type": "Point",
            "coordinates": [
                -71.3064494,
                46.097516
            ]
        },
        "region": 12
    },
    {
        "name": "Aréna St-Isidore",
        "address": "130 route Coulombe",
        "city": "Saint-Isidore",
        "coordinates": {
            "type": "Point",
            "coordinates": [
                -71.08360296737392,
                46.5854195367598
            ]
        },
        "region": 12
    },
    {
        "name": "Centre récréatif Chantal-Petitclerc",
        "address": "1650 boul. Dussault",
        "city": "Saint-Marc-des-Carrières",
        "coordinates": {
            "type": "Point",
            "coordinates": [
                -72.0620165,
                46.6860298
            ]
        },
        "region": 3
    },
    {
        "name": "Centre récréatif de Donnacona",
        "address": "300 de l'Église",
        "city": "Donnacona",
        "coordinates": {
            "type": "Point",
            "coordinates": [
                -71.730651,
                46.6796198
            ]
        },
        "region": 3
    },
    {
        "name": "Centre récréatif de Saint-Henri Inc.",
        "address": "120 rue Belleau",
        "city": "Saint-Henri",
        "coordinates": {
            "type": "Point",
            "coordinates": [
                -71.06518395398817,
                46.69354265
            ]
        },
        "region": 12
    },
    {
        "name": "Centre récréatif de St-Gilles",
        "address": "1530 rue de l'Aréna",
        "city": "Saint-Gilles",
        "coordinates": {
            "type": "Point",
            "coordinates": [
                -71.3649093,
                46.5063284
            ]
        },
        "region": 12
    },
    {
        "name": "Centre Récréatif Joé-Juneau",
        "address": "51 rue du Collège",
        "city": "Pont-Rouge",
        "coordinates": {
            "type": "Point",
            "coordinates": [
                -71.69631308992527,
                46.751521249999996
            ]
        },
        "region": 3
    },
    {
        "name": "Centre Rousseau",
        "address": "390 rue Verreault",
        "city": "Saint-Jean-Port-Joli",
        "coordinates": {
            "type": "Point",
            "coordinates": [
                -70.26112020000001,
                47.21033815
            ]
        },
        "region": 12
    },
    {
        "name": "Centre Sportif",
        "address": "6377 rue Garneau",
        "city": "Sainte-Croix",
        "coordinates": {
            "type": "Point",
            "coordinates": [
                -71.7430584,
                46.6201733
            ]
        },
        "region": 12
    },
    {
        "name": "Centre sportif Bellechasse-Dorchester",
        "address": "39 rue des marianistes",
        "city": "Saint-Anselme",
        "coordinates": {
            "type": "Point",
            "coordinates": [
                -70.96321292102655,
                46.62961986689219
            ]
        },
        "region": 12
    },
    {
        "name": "Centre Sportif Claude-Bédard",
        "address": "146 rue Bisson",
        "city": "Sainte-Justine",
        "coordinates": {
            "type": "Point",
            "coordinates": [
                -70.35162110929716,
                46.41412705
            ]
        },
        "region": 12
    },
    {
        "name": "Centre sportif Goerges-Henri-Vermette",
        "address": "1068 avenue Bergeron",
        "city": "Saint-Agapit",
        "coordinates": {
            "type": "Point",
            "coordinates": [
                -71.452607,
                46.5751318
            ]
        },
        "region": 12
    },
    {
        "name": "Centre sportif La Guadeloupe",
        "address": "210 8e rue Ouest",
        "city": "La Guadeloupe",
        "coordinates": {
            "type": "Point",
            "coordinates": [
                -70.9433788,
                45.9591819
            ]
        },
        "region": 12
    },
    {
        "name": "Centre Sportif Lacroix Dutil",
        "address": "11121 1re avenue",
        "city": "Saint-Georges",
        "coordinates": {
            "type": "Point",
            "coordinates": [
                -70.68096757291667,
                46.12361455
            ]
        },
        "region": 12
    },
    {
        "name": "Centre sportif Marcel-Bédard",
        "address": "655 boulevard des Chutes",
        "city": "Québec",
        "coordinates": {
            "type": "Point",
            "coordinates": [
                -71.1897559,
                46.8575193
            ]
        },
        "region": 3
    },
    {
        "name": "Centre sportif Marc-Simonneau",
        "address": "3500 rue Cambronne",
        "city": "Québec",
        "coordinates": {
            "type": "Point",
            "coordinates": [
                -71.21266736329248,
                46.86126190572654
            ]
        },
        "region": 3
    },
    {
        "name": "Centre sportif Odilon-Grenier",
        "address": "1 rue Grenier",
        "city": "Saint-Joseph-de-Coleraine",
        "coordinates": {
            "type": "Point",
            "coordinates": [
                -71.3701369,
                45.9722402
            ]
        },
        "region": 12
    },
    {
        "name": "Centre sportif Saint-Pascal",
        "address": "420 rue Notre-Dame",
        "city": "Saint-Pascal",
        "coordinates": {
            "type": "Point",
            "coordinates": [
                -69.8037762,
                47.5320402
            ]
        },
        "region": 1
    },
    {
        "name": "Colisée de Loretteville",
        "address": "86 boul. des Étudiants",
        "city": "Québec",
        "coordinates": {
            "type": "Point",
            "coordinates": [
                -71.3610425,
                46.8559912
            ]
        },
        "region": 3
    },
    {
        "name": "Colisée Pepsi",
        "address": "250 boul. Wilfrid Hamel",
        "city": "Québec",
        "coordinates": {
            "type": "Point",
            "coordinates": [
                -71.2456683,
                46.8265395
            ]
        },
        "region": 3
    },
    {
        "name": "Complexe 2 glaces Honco de Lévis",
        "address": "275 avenue Taniata",
        "city": "Lévis",
        "coordinates": {
            "type": "Point",
            "coordinates": [
                -71.2032187,
                46.7259417
            ]
        },
        "region": 12
    },
    {
        "name": "Complexe sportif & culturel de Ste-Claire",
        "address": "160 rue de l'Église",
        "city": "Sainte-Claire",
        "coordinates": {
            "type": "Point",
            "coordinates": [
                -70.8590447909091,
                46.60641154545455
            ]
        },
        "region": 12
    },
    {
        "name": "Complexe sportif de Wendake",
        "address": "100 rue Grand Chef Thonnakona",
        "city": "Wendake",
        "region": 3,
        "coordinates": {
            "type": "Point",
            "coordinates": [
                -71.35138225,
                46.869963150000004
            ]
        }
    },
    {
        "name": "Complexe Sportif Les Trois Glaces",
        "address": "655 Boul. Pierre-Bertrand",
        "city": "Québec",
        "coordinates": {
            "type": "Point",
            "coordinates": [
                -71.2703969,
                46.8216273
            ]
        },
        "region": 3
    },
    {
        "name": "Complexe sportif Mariette et Joseph Faucher",
        "address": "47 rue du Parc",
        "city": "Adstock",
        "coordinates": {
            "type": "Point",
            "coordinates": [
                -71.0794642,
                46.0456884
            ]
        },
        "region": 12
    },
    {
        "name": "Complexe sportif Matra",
        "address": "Chemin de la Polyvalente",
        "city": "Saint-Martin",
        "coordinates": {
            "type": "Point",
            "coordinates": [
                -70.652231,
                45.9577216
            ]
        },
        "region": 12
    },
    {
        "name": "Complexe sportif Multidisciplinaire de L'Ancienne-Lorette",
        "address": "1311 rue des loisirs Est",
        "city": "L'Ancienne-Lorette",
        "coordinates": {
            "type": "Point",
            "coordinates": [
                -71.3614002,
                46.808901
            ]
        },
        "region": 3
    },
    {
        "name": "Complexe sportif multidisciplinaire de Saint-Augustin-e-Desmaures",
        "address": "230 route de Fossambault",
        "city": "Saint-Augustin-de-Desmaures",
        "coordinates": {
            "type": "Point",
            "coordinates": [
                -71.45987959774835,
                46.74640069735979
            ]
        },
        "region": 3
    },
    {
        "name": "Complexe sportif Trane",
        "address": "5770 boulevard Sainte-Anne",
        "city": "Boischatel",
        "coordinates": {
            "type": "Point",
            "coordinates": [
                -71.11537109478786,
                46.90238878942771
            ]
        },
        "region": 3
    },
    {
        "name": "La Cité/Limoilou",
        "address": "245 rue du Pont",
        "city": "Québec",
        "coordinates": {
            "type": "Point",
            "coordinates": [
                -71.2231221,
                46.8188764
            ]
        },
        "region": 3
    },
    {
        "name": "Aréna de Lambton",
        "address": "213 rue de l'aréna",
        "city": "Lambton",
        "coordinates": {
            "type": "Point",
            "coordinates": [
                -71.0898211,
                45.8369435
            ]
        },
        "region": 5
    },
    {
        "name": "Municipalité de Frampton",
        "address": "107 rue Sainte-Anne",
        "city": "Frampton",
        "coordinates": {
            "type": "Point",
            "coordinates": [
                -70.8075296,
                46.4633104
            ]
        },
        "region": 12
    },
    {
        "name": "OTJ Saint-Odilon",
        "address": "109 rue du Centenaire",
        "city": "Saint-Odilon-de-Cranbourne",
        "coordinates": {
            "type": "Point",
            "coordinates": [
                -70.6738336,
                46.3500193
            ]
        },
        "region": 12
    },
    {
        "name": "Sréan Gilles-Tremblay",
        "address": "1101 rue Larue",
        "city": "Québec",
        "coordinates": {
            "type": "Point",
            "coordinates": [
                -71.3578485,
                46.7835564
            ]
        },
        "region": 3
    },
    {
        "name": "Stade des Bâtisseurs",
        "address": "132 Rue du Parc",
        "city": "Saint-Victor",
        "coordinates": {
            "type": "Point",
            "coordinates": [
                -70.89987746597636,
                46.148032650000005
            ]
        },
        "region": 12
    },
    {
        "name": "Aréna 3e escadre de Bagotville",
        "address": "C.P. 410",
        "city": "Saguenay",
        "coordinates": null,
        "region": 2
    },
    {
        "name": "Aréna de Métabetchouan-Lac-à-la-Croix",
        "address": "87 rue St-André",
        "city": "Métabetchouan-Lac-à-la-Croix",
        "coordinates": {
            "type": "Point",
            "coordinates": [
                -71.8719486,
                48.4285119
            ]
        },
        "region": 2
    },
    {
        "name": "Centre Amishkuisht",
        "address": "65 Uapakalu",
        "city": "Mashteuiatsh",
        "region": 2,
        "coordinates": {
            "type": "Point",
            "coordinates": [
                -72.229915,
                48.578729153846155
            ]
        }
    },
    {
        "name": "Centre Mario-Tremblay",
        "address": "605 Boulevard Saint-Luc",
        "city": "Alma",
        "coordinates": {
            "type": "Point",
            "coordinates": [
                -71.65781997727538,
                48.537912669649494
            ]
        },
        "region": 2
    },
    {
        "name": "Centre sportif Mistook",
        "address": "401 Rue Mistouk",
        "city": "Alma",
        "coordinates": {
            "type": "Point",
            "coordinates": [
                -71.69546850901355,
                48.638212749999994
            ]
        },
        "region": 2
    },
    {
        "name": "Centre récréatif de Saint-Félicien",
        "address": "1400 des Sports",
        "city": "Saint-Félicien",
        "coordinates": {
            "type": "Point",
            "coordinates": [
                -72.46043411429895,
                48.64838085
            ]
        },
        "region": 2
    },
    {
        "name": "Centre sportif Benoît-Levesque",
        "address": "345 boul. de la jeunesse",
        "city": "Roberval",
        "coordinates": {
            "type": "Point",
            "coordinates": [
                -72.226982,
                48.50369
            ]
        },
        "region": 2
    },
    {
        "name": "Centre sportif et communautaire de Chapais",
        "address": "188 boul. Springer",
        "city": "Chapais",
        "coordinates": {
            "type": "Point",
            "coordinates": [
                -74.84880681840507,
                49.778968250000005
            ]
        },
        "region": 10
    },
    {
        "name": "Centre sportif Gaston-Morin",
        "address": "445 de l'Église",
        "city": "Sainte-Jeanne-d'Arc",
        "coordinates": {
            "type": "Point",
            "coordinates": [
                -72.0848385,
                48.8658666
            ]
        },
        "region": 1
    },
    {
        "name": "Centre sportif Normandin",
        "address": "975 du Centre Sportif",
        "city": "Normandin",
        "coordinates": {
            "type": "Point",
            "coordinates": [
                -72.5250278,
                48.835648
            ]
        },
        "region": 2
    },
    {
        "name": "Centre sportif Réjean-Temblay",
        "address": "251 avenue Coudé",
        "city": "Saint-David-de-Falardeau",
        "coordinates": {
            "type": "Point",
            "coordinates": [
                -71.112528,
                48.623831
            ]
        },
        "region": 2
    },
    {
        "name": "Centre Sportif Saint-Nazaire Proco",
        "address": "178  rue Principale",
        "city": "Saint-Nazaire",
        "coordinates": {
            "type": "Point",
            "coordinates": [
                -71.54733090013983,
                48.58729286307574
            ]
        },
        "region": 2
    },
    {
        "name": "Club sportif de Chambord",
        "address": "82 rue de la Plaine",
        "city": "Chambord",
        "coordinates": {
            "type": "Point",
            "coordinates": [
                -72.06317877834734,
                48.428476352100155
            ]
        },
        "region": 2
    },
    {
        "name": "Aréna secteur Mistassini",
        "address": "60 rue Savard",
        "city": "Dolbeau-Mistassini",
        "coordinates": {
            "type": "Point",
            "coordinates": [
                -72.2029626,
                48.888836
            ]
        },
        "region": 2
    },
    {
        "name": "Complexe sportif Desjardins",
        "address": "1032 rue des Érables",
        "city": "Dolbeau-Mistassini",
        "coordinates": {
            "type": "Point",
            "coordinates": [
                -72.2238051,
                48.8741849
            ]
        },
        "region": 2
    },
    {
        "name": "Gestion aréna Chibougamau",
        "address": "155 Avenue du Parc",
        "city": "Chibougamau",
        "coordinates": {
            "type": "Point",
            "coordinates": [
                -74.3704059,
                49.9163382
            ]
        },
        "region": 10
    },
    {
        "name": "Municipalité de la Paroisse de La Doré - Complexe sportif",
        "address": "5000 rue des Peupliers",
        "city": "La Doré",
        "coordinates": {
            "type": "Point",
            "coordinates": [
                -72.6493518,
                48.7138902
            ]
        },
        "region": 2
    },
    {
        "name": "Municipalité de Saint-Ambroise",
        "address": "330 rue Gagnon",
        "city": "Saint-Ambroise",
        "coordinates": {
            "type": "Point",
            "coordinates": [
                -71.32122103846154,
                48.553504807692306
            ]
        },
        "region": 2
    },
    {
        "name": "Pavillon de Service de l'UQAC",
        "address": "555 Boul. de l'Université",
        "city": "Saguenay",
        "coordinates": {
            "type": "Point",
            "coordinates": [
                -71.05257810996905,
                48.41997635
            ]
        },
        "region": 2
    },
    {
        "name": "Saguenay - Centre des sports Jean-Claude-Temblay",
        "address": "422 Victoria",
        "city": "Saguenay",
        "coordinates": {
            "type": "Point",
            "coordinates": [
                -70.87881207660271,
                48.3399105
            ]
        },
        "region": 2
    },
    {
        "name": "Saguenay - Les arénas de Chicoutimi",
        "address": "201 rue Racine Est",
        "city": "Saguenay",
        "coordinates": {
            "type": "Point",
            "coordinates": [
                -71.06220216060811,
                48.42828275
            ]
        },
        "region": 2
    },
    {
        "name": "Colisée Vidéotron",
        "address": "6000 rue du Colisée",
        "city": "Trois-Rivières",
        "type": "olympique",
        "coordinates": {
            "type": "Point",
            "coordinates": [
                -72.5913238,
                46.3218116
            ]
        },
        "region": 4
    },
    {
        "name": "Centre de glaces Intact Assurance",
        "address": "999 Av. De Rochebelle",
        "city": "Québec",
        "type": "olympique",
        "coordinates": {
            "type": "Point",
            "coordinates": [
                -71.3013611,
                46.7705876
            ]
        },
        "region": 3
    },
    {
        "name": "Complexe sportif Desjardins",
        "address": "150 2e Rue Est",
        "city": "Rimouski",
        "coordinates": {
            "type": "Point",
            "coordinates": [
                -68.5127618,
                48.4493853
            ]
        },
        "type": "olympique",
        "region": 1
    }
]